[{"name": "GIANT STEPS CHILD CARE CENTER", "licensee": "G&M CARE, INC.", "address": "6951 OBISPO", "city": "LONG BEACH", "zip": "90805", "capacity": 19, "status": "CLOSED", "risk_score": 10, "lat": 33.86341751517341, "lng": -118.18877411004641, "license_date": "4/6/2021", "closed_date": "6/29/2022"}, {"name": "SUPERIOR CHILDREN'S CENTER", "licensee": "BRIGHT HORIZONS CHILDREN'S CENTERS LLC", "address": "4301 E. COMMERCE WAY", "city": "SACRAMENTO", "zip": "95834", "capacity": 84, "status": "CLOSED", "risk_score": 10, "lat": 38.64899075385951, "lng": -121.52396912559114, "license_date": "5/17/2021", "closed_date": "12/22/2022"}, {"name": "LITTLE SUNSHINE LEARNING CENTER-INFANT", "licensee": "LITTLE SUNSHINE LEARNING CENTER LLC", "address": "15 WOODLAND ROAD", "city": "ST. HELENA", "zip": "94574", "capacity": 4, "status": "CLOSED", "risk_score": 10, "lat": 38.50407541133261, "lng": -122.47268683698519, "license_date": "3/26/2021", "closed_date": "7/13/2022"}, {"name": "HAGGINWOOD ACADEMY", "licensee": "HAGGINWOOD ACADEMY LLC", "address": "3240 MARYSVILLE BLVD", "city": "SACRAMENTO", "zip": "95815", "capacity": 23, "status": "CLOSED", "risk_score": 10, "lat": 38.61417273285097, "lng": -121.44281579251198, "license_date": "11/9/2020", "closed_date": "10/29/2021"}, {"name": "HAGGINWOOD ACADEMY", "licensee": "HAGGINWOOD ACADEMY LLC", "address": "3240 MARYSVILLE BLVD", "city": "SACRAMENTO", "zip": "95815", "capacity": 23, "status": "CLOSED", "risk_score": 10, "lat": 38.60587500692817, "lng": -121.4454020897368, "license_date": "11/9/2020", "closed_date": "10/29/2021"}, {"name": "BRIGHT FUTURES PRESCHOOL", "licensee": "BRIGHT FUTURES PRESCHOOL LLC", "address": "608 KENTUCKY", "city": "BAKERSFIELD", "zip": "93305", "capacity": 11, "status": "CLOSED", "risk_score": 10, "lat": 35.39985587983768, "lng": -118.98067813529904, "license_date": "9/17/2020", "closed_date": "8/31/2022"}, {"name": "BRIGHT FUTURES PRESCHOOL", "licensee": "BRIGHT FUTURES PRESCHOOL LLC", "address": "608 KENTUCKY", "city": "BAKERSFIELD", "zip": "93305", "capacity": 11, "status": "CLOSED", "risk_score": 10, "lat": 35.390870820464635, "lng": -118.96683330785503, "license_date": "9/17/2020", "closed_date": "8/31/2022"}, {"name": "BRIGHT FUTURES PRESCHOOL", "licensee": "BRIGHT FUTURES PRESCHOOL LLC", "address": "608 KENTUCKY", "city": "BAKERSFIELD", "zip": "93305", "capacity": 11, "status": "CLOSED", "risk_score": 10, "lat": 35.39551461776237, "lng": -118.97022426077504, "license_date": "9/17/2020", "closed_date": "8/31/2022"}, {"name": "TINKER LEARNING CENTER", "licensee": "TINKER LEARNING ACADEMY LLC", "address": "17535 DEL MONTE AVENUE", "city": "MORGAN HILL", "zip": "95037", "capacity": 30, "status": "CLOSED", "risk_score": 10, "lat": 37.12645408245825, "lng": -121.65299121982541, "license_date": "9/15/2022", "closed_date": "1/24/2023"}, {"name": "TINKER LEARNING CENTER", "licensee": "TINKER LEARNING ACADEMY LLC", "address": "17535 DEL MONTE AVENUE", "city": "MORGAN HILL", "zip": "95037", "capacity": 30, "status": "CLOSED", "risk_score": 10, "lat": 37.12117355741851, "lng": -121.64613477282818, "license_date": "9/15/2022", "closed_date": "1/24/2023"}, {"name": "TINKER LEARNING CENTER", "licensee": "TINKER LEARNING ACADEMY LLC", "address": "17535 DEL MONTE AVENUE", "city": "MORGAN HILL", "zip": "95037", "capacity": 30, "status": "CLOSED", "risk_score": 10, "lat": 37.1258957369215, "lng": -121.6562875656325, "license_date": "9/15/2022", "closed_date": "1/24/2023"}, {"name": "TINKER LEARNING CENTER", "licensee": "TINKER LEARNING ACADEMY LLC", "address": "17535 DEL MONTE AVENUE", "city": "MORGAN HILL", "zip": "95037", "capacity": 72, "status": "CLOSED", "risk_score": 10, "lat": 37.12752719629829, "lng": -121.66320750109281, "license_date": "9/15/2022", "closed_date": "6/4/2024"}, {"name": "TINKER LEARNING CENTER", "licensee": "TINKER LEARNING ACADEMY LLC", "address": "17535 DEL MONTE AVENUE", "city": "MORGAN HILL", "zip": "95037", "capacity": 72, "status": "CLOSED", "risk_score": 10, "lat": 37.12250114870791, "lng": -121.65983797126457, "license_date": "9/15/2022", "closed_date": "6/4/2024"}, {"name": "TINKER LEARNING CENTER", "licensee": "TINKER LEARNING ACADEMY LLC", "address": "17535 DEL MONTE AVENUE", "city": "MORGAN HILL", "zip": "95037", "capacity": 72, "status": "CLOSED", "risk_score": 10, "lat": 37.12183941826716, "lng": -121.65055693384771, "license_date": "9/15/2022", "closed_date": "6/4/2024"}, {"name": "TINKER LEARNING CENTER", "licensee": "TINKER LEARNING ACADEMY LLC", "address": "17535 DEL MONTE AVENUE", "city": "MORGAN HILL", "zip": "95037", "capacity": 24, "status": "CLOSED", "risk_score": 10, "lat": 37.123245341513, "lng": -121.66011559855022, "license_date": "9/15/2022", "closed_date": "6/4/2024"}, {"name": "TINKER LEARNING CENTER", "licensee": "TINKER LEARNING ACADEMY LLC", "address": "17535 DEL MONTE AVENUE", "city": "MORGAN HILL", "zip": "95037", "capacity": 24, "status": "CLOSED", "risk_score": 10, "lat": 37.13939375861503, "lng": -121.65288431086398, "license_date": "9/15/2022", "closed_date": "6/4/2024"}, {"name": "TINKER LEARNING CENTER", "licensee": "TINKER LEARNING ACADEMY LLC", "address": "17535 DEL MONTE AVENUE", "city": "MORGAN HILL", "zip": "95037", "capacity": 24, "status": "CLOSED", "risk_score": 10, "lat": 37.12776963687389, "lng": -121.66023549662422, "license_date": "9/15/2022", "closed_date": "6/4/2024"}, {"name": "BRIGHT FUTURES PRESCHOOL", "licensee": "BRIGHT FUTURES PRESCHOOL LLC", "address": "608 KENTUCKY", "city": "BAKERSFIELD", "zip": "93305", "capacity": 9, "status": "CLOSED", "risk_score": 10, "lat": 35.38169580829227, "lng": -118.96877928007312, "license_date": "9/17/2020", "closed_date": "8/31/2022"}, {"name": "BRIGHT FUTURES PRESCHOOL", "licensee": "BRIGHT FUTURES PRESCHOOL LLC", "address": "608 KENTUCKY", "city": "BAKERSFIELD", "zip": "93305", "capacity": 9, "status": "CLOSED", "risk_score": 10, "lat": 35.39309433934458, "lng": -118.97492299843066, "license_date": "9/17/2020", "closed_date": "8/31/2022"}, {"name": "BRIGHT FUTURES PRESCHOOL", "licensee": "BRIGHT FUTURES PRESCHOOL LLC", "address": "608 KENTUCKY", "city": "BAKERSFIELD", "zip": "93305", "capacity": 9, "status": "CLOSED", "risk_score": 10, "lat": 35.38994794159245, "lng": -118.97440573532559, "license_date": "9/17/2020", "closed_date": "8/31/2022"}, {"name": "HAGGINWOOD ACADEMY", "licensee": "HAGGINWOOD ACADEMY LLC", "address": "3240 MARYSVILLE BLVD", "city": "SACRAMENTO", "zip": "95815", "capacity": 5, "status": "CLOSED", "risk_score": 10, "lat": 38.61193560142836, "lng": -121.44635200475459, "license_date": "11/9/2020", "closed_date": "10/29/2021"}, {"name": "HAGGINWOOD ACADEMY", "licensee": "HAGGINWOOD ACADEMY LLC", "address": "3240 MARYSVILLE BLVD", "city": "SACRAMENTO", "zip": "95815", "capacity": 5, "status": "CLOSED", "risk_score": 10, "lat": 38.601472940523394, "lng": -121.43416653000514, "license_date": "11/9/2020", "closed_date": "10/29/2021"}, {"name": "FUTURE STARS ACADEMY", "licensee": "FUTURE STARS ACADEMY", "address": "5005 W. 21ST STREET", "city": "LOS ANGELES", "zip": "90016", "capacity": 33, "status": "CLOSED", "risk_score": 9, "lat": 34.02966551724159, "lng": -118.34913059121519, "license_date": "2/24/2020", "closed_date": "12/28/2020"}, {"name": "FUTURE STARS ACADEMY", "licensee": "FUTURE STARS ACADEMY", "address": "5005 W. 21ST STREET", "city": "LOS ANGELES", "zip": "90016", "capacity": 33, "status": "CLOSED", "risk_score": 9, "lat": 34.02473500758226, "lng": -118.35709300986166, "license_date": "2/24/2020", "closed_date": "12/28/2020"}, {"name": "LIEN, SHUANG", "licensee": "LIEN, SHUANG", "address": "Unavailable", "city": "DUBLIN", "zip": "94568", "capacity": 14, "status": "CLOSED", "risk_score": 9, "lat": 37.70326830393889, "lng": -121.91802374402006, "license_date": "2/10/2022", "closed_date": "8/18/2023"}, {"name": "LIEN, SHUANG", "licensee": "LIEN, SHUANG", "address": "Unavailable", "city": "DUBLIN", "zip": "94568", "capacity": 14, "status": "CLOSED", "risk_score": 9, "lat": 37.69897700284932, "lng": -121.91893783919176, "license_date": "2/10/2022", "closed_date": "8/18/2023"}, {"name": "THOMSEN LEARNING CENTER", "licensee": "THOMSEN, PAMELA", "address": "217 EARLHAM STREET", "city": "RAMONA", "zip": "92065", "capacity": 59, "status": "CLOSED", "risk_score": 9, "lat": 33.03658478615615, "lng": -116.84620195035933, "license_date": "7/16/2022", "closed_date": "6/17/2024"}, {"name": "THOMSEN LEARNING CENTER", "licensee": "THOMSEN, PAMELA", "address": "217 EARLHAM STREET", "city": "RAMONA", "zip": "92065", "capacity": 59, "status": "CLOSED", "risk_score": 9, "lat": 33.05324332794977, "lng": -116.86361171596337, "license_date": "7/16/2022", "closed_date": "6/17/2024"}, {"name": "THOMSEN LEARNING CENTER", "licensee": "THOMSEN, PAMELA", "address": "217 EARLHAM STREET", "city": "RAMONA", "zip": "92065", "capacity": 59, "status": "CLOSED", "risk_score": 9, "lat": 33.0534862873781, "lng": -116.86094302415256, "license_date": "7/16/2022", "closed_date": "6/17/2024"}, {"name": "NOORI, SHAFIQA FAMILY CHILD CARE", "licensee": "NOORI, SHAFIQA", "address": "Unavailable", "city": "EL CAJON", "zip": "92020", "capacity": 14, "status": "CLOSED", "risk_score": 9, "lat": 32.78452925590182, "lng": -116.95498514710036, "license_date": "11/16/2021", "closed_date": "9/1/2023"}, {"name": "NOORI, SHAFIQA FAMILY CHILD CARE", "licensee": "NOORI, SHAFIQA", "address": "Unavailable", "city": "EL CAJON", "zip": "92020", "capacity": 14, "status": "CLOSED", "risk_score": 9, "lat": 32.78378265230351, "lng": -116.9635435259569, "license_date": "11/16/2021", "closed_date": "9/1/2023"}, {"name": "NOORI, SHAFIQA FAMILY CHILD CARE", "licensee": "NOORI, SHAFIQA", "address": "Unavailable", "city": "EL CAJON", "zip": "92020", "capacity": 14, "status": "CLOSED", "risk_score": 9, "lat": 32.78647414881812, "lng": -116.96629279555475, "license_date": "11/16/2021", "closed_date": "9/1/2023"}, {"name": "NOORI, SHAFIQA FAMILY CHILD CARE", "licensee": "NOORI, SHAFIQA", "address": "Unavailable", "city": "EL CAJON", "zip": "92020", "capacity": 14, "status": "CLOSED", "risk_score": 9, "lat": 32.79817488922649, "lng": -116.95992347536207, "license_date": "11/16/2021", "closed_date": "9/1/2023"}, {"name": "MOVSISYAN, HASMIK", "licensee": "MOVSISYAN, HASMIK", "address": "Unavailable", "city": "SACRAMENTO", "zip": "95827", "capacity": 14, "status": "CLOSED", "risk_score": 9, "lat": 38.55005656481977, "lng": -121.3216241776959, "license_date": "12/2/2021", "closed_date": "12/12/2022"}, {"name": "MOVSISYAN, HASMIK", "licensee": "MOVSISYAN, HASMIK", "address": "Unavailable", "city": "SACRAMENTO", "zip": "95827", "capacity": 14, "status": "CLOSED", "risk_score": 9, "lat": 38.555883551731924, "lng": -121.33544614516467, "license_date": "12/2/2021", "closed_date": "12/12/2022"}, {"name": "SHORES CHILD DEVELOPMENT CENTER", "licensee": "KINDERCARE EDUCATION AT WORK LLC", "address": "1050 TWIN DOLPHIN DRIVE", "city": "REDWOOD CITY", "zip": "94065", "capacity": 40, "status": "CLOSED", "risk_score": 9, "lat": 37.53854791043125, "lng": -122.24395650465941, "license_date": "12/17/2020", "closed_date": "6/29/2021"}, {"name": "ENCINITAS SHINING STARS", "licensee": "ELLINS, PAUL", "address": "511 ENCINITAS BOULEVARD #114", "city": "ENCINITAS", "zip": "92024", "capacity": 55, "status": "CLOSED", "risk_score": 9, "lat": 33.048825880576445, "lng": -117.27823909336175, "license_date": "5/4/2021", "closed_date": "11/3/2022"}, {"name": "VISTA MONTESSORI COUNTRY PRESCHOOL", "licensee": "WAKE PROPERTIES INC", "address": "777 TAYLOR STREET", "city": "VISTA", "zip": "92084", "capacity": 57, "status": "CLOSED", "risk_score": 9, "lat": 33.20764800950983, "lng": -117.26484831861906, "license_date": "3/9/2020", "closed_date": "7/28/2021"}, {"name": "VISTA MONTESSORI COUNTRY PRESCHOOL", "licensee": "WAKE PROPERTIES INC", "address": "777 TAYLOR STREET", "city": "VISTA", "zip": "92084", "capacity": 57, "status": "CLOSED", "risk_score": 9, "lat": 33.20171576950968, "lng": -117.25371844922326, "license_date": "3/9/2020", "closed_date": "7/28/2021"}, {"name": "FESTO, CAROLINA & NIYUNGEKO FAMILY CHILD CARE", "licensee": "FESTO, CAROLINA & NIYUNGEKO", "address": "Unavailable", "city": "SAN DIEGO", "zip": "92105", "capacity": 14, "status": "CLOSED", "risk_score": 9, "lat": 32.74564798271276, "lng": -117.09307731080185, "license_date": "10/4/2021", "closed_date": "2/3/2022"}, {"name": "FESTO, CAROLINA & NIYUNGEKO FAMILY CHILD CARE", "licensee": "FESTO, CAROLINA & NIYUNGEKO", "address": "Unavailable", "city": "SAN DIEGO", "zip": "92105", "capacity": 14, "status": "CLOSED", "risk_score": 9, "lat": 32.744770813733695, "lng": -117.10034863336053, "license_date": "10/4/2021", "closed_date": "2/3/2022"}, {"name": "FESTO, CAROLINA & NIYUNGEKO FAMILY CHILD CARE", "licensee": "FESTO, CAROLINA & NIYUNGEKO", "address": "Unavailable", "city": "SAN DIEGO", "zip": "92105", "capacity": 14, "status": "CLOSED", "risk_score": 9, "lat": 32.74157978187513, "lng": -117.10420839334533, "license_date": "10/4/2021", "closed_date": "2/3/2022"}, {"name": "YMCA OF THE EAST BAY-JOHN MUIR", "licensee": "YOUNG MEN'S CHRISTIAN ASSOCIATION OF THE EAST BAY", "address": "24823 SOTO ROAD", "city": "HAYWARD", "zip": "94544", "capacity": 45, "status": "CLOSED", "risk_score": 9, "lat": 37.6247206119986, "lng": -122.06885024527912, "license_date": "1/4/2022", "closed_date": "11/21/2022"}, {"name": "YMCA OF THE EAST BAY-JOHN MUIR", "licensee": "YOUNG MEN'S CHRISTIAN ASSOCIATION OF THE EAST BAY", "address": "24823 SOTO ROAD", "city": "HAYWARD", "zip": "94544", "capacity": 45, "status": "CLOSED", "risk_score": 9, "lat": 37.62292427460397, "lng": -122.0818078181408, "license_date": "1/4/2022", "closed_date": "11/21/2022"}, {"name": "YMCA OF THE EAST BAY - FAIRGROUNDS ELC", "licensee": "YOUNG MEN'S CHRISTIAN ASSOCIATION OF THE EAST BAY", "address": "1203 WEST 10TH STREET", "city": "ANTIOCH", "zip": "94509", "capacity": 128, "status": "CLOSED", "risk_score": 9, "lat": 37.98737595794586, "lng": -121.78889618500399, "license_date": "10/14/2022", "closed_date": "8/22/2024"}, {"name": "YMCA OF THE EAST BAY - FAIRGROUNDS ELC", "licensee": "YOUNG MEN'S CHRISTIAN ASSOCIATION OF THE EAST BAY", "address": "1203 WEST 10TH STREET", "city": "ANTIOCH", "zip": "94509", "capacity": 128, "status": "CLOSED", "risk_score": 9, "lat": 37.98587617727491, "lng": -121.79930333744346, "license_date": "10/14/2022", "closed_date": "8/22/2024"}, {"name": "ABDI, MISKI FAMILY CHILD CARE", "licensee": "ABDI, MISKI", "address": "Unavailable", "city": "LAKESIDE", "zip": "92040", "capacity": 14, "status": "CLOSED", "risk_score": 9, "lat": 32.831846776555935, "lng": -116.84632998407696, "license_date": "6/2/2022", "closed_date": "5/15/2023"}, {"name": "ABDI, MISKI FAMILY CHILD CARE", "licensee": "ABDI, MISKI", "address": "Unavailable", "city": "LAKESIDE", "zip": "92040", "capacity": 14, "status": "CLOSED", "risk_score": 9, "lat": 32.832250444453415, "lng": -116.86346805016004, "license_date": "6/2/2022", "closed_date": "5/15/2023"}, {"name": "ABDI, MISKI FAMILY CHILD CARE", "licensee": "ABDI, MISKI", "address": "Unavailable", "city": "LAKESIDE", "zip": "92040", "capacity": 14, "status": "CLOSED", "risk_score": 9, "lat": 32.83616466255609, "lng": -116.84873965312622, "license_date": "6/2/2022", "closed_date": "5/15/2023"}, {"name": "DICKERSON FAMILY CHILD CARE", "licensee": "DICKERSON, ANITA", "address": "Unavailable", "city": "CARSON", "zip": "90746", "capacity": 14, "status": "CLOSED", "risk_score": 9, "lat": 33.850797626619666, "lng": -118.25773349294442, "license_date": "11/1/2022", "closed_date": "12/12/2023"}, {"name": "DICKERSON FAMILY CHILD CARE", "licensee": "DICKERSON, ANITA", "address": "Unavailable", "city": "CARSON", "zip": "90746", "capacity": 14, "status": "CLOSED", "risk_score": 9, "lat": 33.845920063861136, "lng": -118.2577660658528, "license_date": "11/1/2022", "closed_date": "12/12/2023"}, {"name": "DICKERSON FAMILY CHILD CARE", "licensee": "DICKERSON, ANITA", "address": "Unavailable", "city": "CARSON", "zip": "90746", "capacity": 14, "status": "CLOSED", "risk_score": 9, "lat": 33.83767852984231, "lng": -118.25131294222815, "license_date": "11/1/2022", "closed_date": "12/12/2023"}, {"name": "LEARNING TREE PRESCHOOL, THE", "licensee": "WILSON, DOUGLAS", "address": "3045 ROCKVILLE ROAD", "city": "FAIRFIELD", "zip": "94534", "capacity": 90, "status": "CLOSED", "risk_score": 9, "lat": 38.236380805059284, "lng": -122.13362571002597, "license_date": "12/11/2020", "closed_date": "10/4/2021"}, {"name": "LEARNING TREE PRESCHOOL, THE", "licensee": "WILSON, DOUGLAS", "address": "3045 ROCKVILLE ROAD", "city": "FAIRFIELD", "zip": "94534", "capacity": 90, "status": "CLOSED", "risk_score": 9, "lat": 38.24090706809345, "lng": -122.14540850239081, "license_date": "12/11/2020", "closed_date": "10/4/2021"}, {"name": "LEMONWOOD STATE PRESCHOOL", "licensee": "OXNARD SCHOOL DISTRICT", "address": "2001 SAN MATEO PLACE", "city": "OXNARD", "zip": "93033", "capacity": 24, "status": "CLOSED", "risk_score": 9, "lat": 34.16296666253595, "lng": -119.15603535604997, "license_date": "2/18/2021", "closed_date": "6/30/2022"}, {"name": "BROWN FAMILY CHILD CARE", "licensee": "BROWN, MELISSA", "address": "Unavailable", "city": "SANTA MARIA", "zip": "93455", "capacity": 14, "status": "CLOSED", "risk_score": 9, "lat": 34.89282540956469, "lng": -120.44655429710146, "license_date": "11/9/2022", "closed_date": "3/27/2024"}, {"name": "COOKS, DEBORAH FAMILY CHILD CARE", "licensee": "COOKS, DEBORAH", "address": "Unavailable", "city": "BAKERSFIELD", "zip": "93309", "capacity": 14, "status": "CLOSED", "risk_score": 9, "lat": 35.34970795307517, "lng": -119.09829244121943, "license_date": "10/16/2020", "closed_date": "9/2/2021"}, {"name": "COOKS, DEBORAH FAMILY CHILD CARE", "licensee": "COOKS, DEBORAH", "address": "Unavailable", "city": "BAKERSFIELD", "zip": "93309", "capacity": 14, "status": "CLOSED", "risk_score": 9, "lat": 35.35348195937122, "lng": -119.09867125612179, "license_date": "10/16/2020", "closed_date": "9/2/2021"}, {"name": "COOKS, DEBORAH FAMILY CHILD CARE", "licensee": "COOKS, DEBORAH", "address": "Unavailable", "city": "BAKERSFIELD", "zip": "93309", "capacity": 14, "status": "CLOSED", "risk_score": 9, "lat": 35.35017687114726, "lng": -119.08939807076334, "license_date": "10/16/2020", "closed_date": "9/2/2021"}, {"name": "HERE WE GROW EARLY LEARNING CENTER", "licensee": "GROWING BABIES, LLC", "address": "3721 MODOC RD.", "city": "SANTA BARBARA", "zip": "93105", "capacity": 34, "status": "CLOSED", "risk_score": 9, "lat": 34.432176954469796, "lng": -119.72788973493222, "license_date": "9/1/2020", "closed_date": "10/1/2021"}, {"name": "HERE WE GROW EARLY LEARNING CENTER", "licensee": "GROWING BABIES, LLC", "address": "3721 MODOC RD.", "city": "SANTA BARBARA", "zip": "93105", "capacity": 34, "status": "CLOSED", "risk_score": 9, "lat": 34.433739314944106, "lng": -119.743446009645, "license_date": "9/1/2020", "closed_date": "10/1/2021"}, {"name": "BENSON, ROBYN", "licensee": "BENSON, ROBYN", "address": "Unavailable", "city": "WINTERS", "zip": "95694", "capacity": 14, "status": "CLOSED", "risk_score": 9, "lat": 38.614706402968096, "lng": -121.87661549041592, "license_date": "8/10/2020", "closed_date": "4/19/2022"}, {"name": "BENSON, ROBYN", "licensee": "BENSON, ROBYN", "address": "Unavailable", "city": "WINTERS", "zip": "95694", "capacity": 14, "status": "CLOSED", "risk_score": 9, "lat": 38.604723915780205, "lng": -121.87883665721381, "license_date": "8/10/2020", "closed_date": "4/19/2022"}, {"name": "BENSON, ROBYN", "licensee": "BENSON, ROBYN", "address": "Unavailable", "city": "WINTERS", "zip": "95694", "capacity": 14, "status": "CLOSED", "risk_score": 9, "lat": 38.598273824089326, "lng": -121.8894943760933, "license_date": "8/10/2020", "closed_date": "4/19/2022"}, {"name": "LITTLE SUNSHINE LEARNING CENTER", "licensee": "WHITESIDE, JULIETA", "address": "15 WOODLAND DRIVE", "city": "ST HELENA", "zip": "94574", "capacity": 12, "status": "CLOSED", "risk_score": 9, "lat": 38.51019297733983, "lng": -122.47372916117219, "license_date": "12/28/2020", "closed_date": "6/13/2022"}, {"name": "LITTLE SUNSHINE LEARNING CENTER", "licensee": "WHITESIDE, JULIETA", "address": "15 WOODLAND DRIVE", "city": "ST HELENA", "zip": "94574", "capacity": 12, "status": "CLOSED", "risk_score": 9, "lat": 38.50896528382146, "lng": -122.46357441545702, "license_date": "12/28/2020", "closed_date": "6/13/2022"}, {"name": "LITTLE SUNSHINE LEARNING CENTER", "licensee": "WHITESIDE, JULIETA", "address": "15 WOODLAND DRIVE", "city": "ST HELENA", "zip": "94574", "capacity": 12, "status": "CLOSED", "risk_score": 9, "lat": 38.50787626899913, "lng": -122.46133771808698, "license_date": "12/28/2020", "closed_date": "6/13/2022"}, {"name": "MCMILLAN, DAWN FAMILY CHILD CARE", "licensee": "MCMILLAN, DAWN", "address": "Unavailable", "city": "SPRING VALLEY", "zip": "91977", "capacity": 14, "status": "CLOSED", "risk_score": 9, "lat": 32.79934140231967, "lng": -116.95438750261444, "license_date": "12/29/2020", "closed_date": "12/14/2021"}, {"name": "MCMILLAN, DAWN FAMILY CHILD CARE", "licensee": "MCMILLAN, DAWN", "address": "Unavailable", "city": "SPRING VALLEY", "zip": "91977", "capacity": 14, "status": "CLOSED", "risk_score": 9, "lat": 32.79848032332238, "lng": -116.94540123455147, "license_date": "12/29/2020", "closed_date": "12/14/2021"}, {"name": "MCMILLAN, DAWN FAMILY CHILD CARE", "licensee": "MCMILLAN, DAWN", "address": "Unavailable", "city": "SPRING VALLEY", "zip": "91977", "capacity": 14, "status": "CLOSED", "risk_score": 9, "lat": 32.802397941182434, "lng": -116.95462582473314, "license_date": "12/29/2020", "closed_date": "12/14/2021"}, {"name": "BAI, YAPING", "licensee": "BAI, YAPING", "address": "Unavailable", "city": "SUNNYVALE", "zip": "94086", "capacity": 14, "status": "CLOSED", "risk_score": 9, "lat": 37.37483988160894, "lng": -122.02368632967945, "license_date": "6/17/2021", "closed_date": "9/21/2022"}, {"name": "BAI, YAPING", "licensee": "BAI, YAPING", "address": "Unavailable", "city": "SUNNYVALE", "zip": "94086", "capacity": 14, "status": "CLOSED", "risk_score": 9, "lat": 37.37781500461514, "lng": -122.02290593681101, "license_date": "6/17/2021", "closed_date": "9/21/2022"}, {"name": "BAI, YAPING", "licensee": "BAI, YAPING", "address": "Unavailable", "city": "SUNNYVALE", "zip": "94086", "capacity": 14, "status": "CLOSED", "risk_score": 9, "lat": 37.38468044225909, "lng": -122.01562657243889, "license_date": "6/17/2021", "closed_date": "9/21/2022"}, {"name": "BAI, YAPING", "licensee": "BAI, YAPING", "address": "Unavailable", "city": "SUNNYVALE", "zip": "94086", "capacity": 14, "status": "CLOSED", "risk_score": 9, "lat": 37.37009178784727, "lng": -122.02267807000291, "license_date": "9/21/2022", "closed_date": "4/16/2024"}, {"name": "BAI, YAPING", "licensee": "BAI, YAPING", "address": "Unavailable", "city": "SUNNYVALE", "zip": "94086", "capacity": 14, "status": "CLOSED", "risk_score": 9, "lat": 37.37060779735504, "lng": -122.01784824070383, "license_date": "9/21/2022", "closed_date": "4/16/2024"}, {"name": "BAI, YAPING", "licensee": "BAI, YAPING", "address": "Unavailable", "city": "SUNNYVALE", "zip": "94086", "capacity": 14, "status": "CLOSED", "risk_score": 9, "lat": 37.36775086446476, "lng": -122.02736828185269, "license_date": "9/21/2022", "closed_date": "4/16/2024"}, {"name": "ANDRAL, EDNER FAMILY CHILD CARE", "licensee": "ANDRAL, EDNER", "address": "Unavailable", "city": "SAN DIEGO", "zip": "92105", "capacity": 14, "status": "CLOSED", "risk_score": 9, "lat": 32.7506171440688, "lng": -117.08746182646341, "license_date": "6/1/2022", "closed_date": "12/7/2023"}, {"name": "ANDRAL, EDNER FAMILY CHILD CARE", "licensee": "ANDRAL, EDNER", "address": "Unavailable", "city": "SAN DIEGO", "zip": "92105", "capacity": 14, "status": "CLOSED", "risk_score": 9, "lat": 32.73445330238033, "lng": -117.08717703399451, "license_date": "6/1/2022", "closed_date": "12/7/2023"}, {"name": "ANDRAL, EDNER FAMILY CHILD CARE", "licensee": "ANDRAL, EDNER", "address": "Unavailable", "city": "SAN DIEGO", "zip": "92105", "capacity": 14, "status": "CLOSED", "risk_score": 9, "lat": 32.73404832433944, "lng": -117.09387055742454, "license_date": "6/1/2022", "closed_date": "12/7/2023"}, {"name": "LOPEZ, ESPERANZA", "licensee": "LOPEZ, ESPERANZA", "address": "Unavailable", "city": "SAN JOSE", "zip": "95117", "capacity": 14, "status": "CLOSED", "risk_score": 9, "lat": 37.30368341156715, "lng": -121.94268932321349, "license_date": "1/15/2021", "closed_date": "12/29/2021"}, {"name": "LOPEZ, ESPERANZA", "licensee": "LOPEZ, ESPERANZA", "address": "Unavailable", "city": "SAN JOSE", "zip": "95117", "capacity": 14, "status": "CLOSED", "risk_score": 9, "lat": 37.319355183299244, "lng": -121.94552451359853, "license_date": "1/15/2021", "closed_date": "12/29/2021"}, {"name": "LOPEZ, ESPERANZA", "licensee": "LOPEZ, ESPERANZA", "address": "Unavailable", "city": "SAN JOSE", "zip": "95117", "capacity": 14, "status": "CLOSED", "risk_score": 9, "lat": 37.303300172325784, "lng": -121.94670800901017, "license_date": "1/15/2021", "closed_date": "12/29/2021"}, {"name": "DEVILLERES, TACY & DO, LONG FAMILY CHILD CARE", "licensee": "DEVILLERES, TACY & DO, LONG", "address": "Unavailable", "city": "SAN DIEGO", "zip": "92123", "capacity": 14, "status": "CLOSED", "risk_score": 9, "lat": 32.81782057022998, "lng": -117.13598772460406, "license_date": "4/26/2022", "closed_date": "12/30/2022"}, {"name": "DEVILLERES, TACY & DO, LONG FAMILY CHILD CARE", "licensee": "DEVILLERES, TACY & DO, LONG", "address": "Unavailable", "city": "SAN DIEGO", "zip": "92123", "capacity": 14, "status": "CLOSED", "risk_score": 9, "lat": 32.804741854611756, "lng": -117.14128564285943, "license_date": "4/26/2022", "closed_date": "12/30/2022"}, {"name": "SMITH FAMILY CHILD CARE", "licensee": "SMITH, MELISSA", "address": "Unavailable", "city": "SANTA MARIA", "zip": "93455", "capacity": 14, "status": "CLOSED", "risk_score": 9, "lat": 34.88272456574626, "lng": -120.44700483939452, "license_date": "10/25/2021", "closed_date": "11/9/2022"}, {"name": "PLAYGROUND LEARNING CENTER, THE", "licensee": "WHITE, SHENEA", "address": "237 AVOCADO AVENUE", "city": "EL CAJON", "zip": "92020", "capacity": 11, "status": "CLOSED", "risk_score": 9, "lat": 32.800640593450254, "lng": -116.97120273474206, "license_date": "11/22/2021", "closed_date": "4/29/2022"}, {"name": "PLAYGROUND LEARNING CENTER, THE", "licensee": "WHITE, SHENEA", "address": "237 AVOCADO AVENUE", "city": "EL CAJON", "zip": "92020", "capacity": 11, "status": "CLOSED", "risk_score": 9, "lat": 32.80133738184909, "lng": -116.96756172113645, "license_date": "11/22/2021", "closed_date": "4/29/2022"}, {"name": "PLAYGROUND LEARNING CENTER, THE", "licensee": "WHITE, SHENEA", "address": "237 AVOCADO AVENUE", "city": "EL CAJON", "zip": "92020", "capacity": 11, "status": "CLOSED", "risk_score": 9, "lat": 32.80054063864636, "lng": -116.96526418647909, "license_date": "11/22/2021", "closed_date": "4/29/2022"}, {"name": "GARCIA, LYDIA FAMILY CHILD CARE", "licensee": "GARCIA, LYDIA", "address": "Unavailable", "city": "VISALIA", "zip": "93291", "capacity": 14, "status": "CLOSED", "risk_score": 9, "lat": 36.31228249774167, "lng": -119.28978964549671, "license_date": "5/31/2022", "closed_date": "11/7/2023"}, {"name": "GARCIA, LYDIA FAMILY CHILD CARE", "licensee": "GARCIA, LYDIA", "address": "Unavailable", "city": "VISALIA", "zip": "93291", "capacity": 14, "status": "CLOSED", "risk_score": 9, "lat": 36.32247460821439, "lng": -119.2998854477251, "license_date": "5/31/2022", "closed_date": "11/7/2023"}, {"name": "GARCIA, LYDIA FAMILY CHILD CARE", "licensee": "GARCIA, LYDIA", "address": "Unavailable", "city": "VISALIA", "zip": "93291", "capacity": 14, "status": "CLOSED", "risk_score": 9, "lat": 36.32331942867178, "lng": -119.3027017995052, "license_date": "5/31/2022", "closed_date": "11/7/2023"}, {"name": "GARCIA, LYDIA FAMILY CHILD CARE", "licensee": "GARCIA, LYDIA", "address": "Unavailable", "city": "VISALIA", "zip": "93291", "capacity": 14, "status": "CLOSED", "risk_score": 9, "lat": 36.32117476148616, "lng": -119.29935931116665, "license_date": "5/31/2022", "closed_date": "11/7/2023"}, {"name": "NATURE'S LAB SCHOOL, LLC", "licensee": "ANDERSON, SILVIA M.", "address": "6201 WINDING WAY", "city": "CARMICHAEL", "zip": "95608", "capacity": 6, "status": "CLOSED", "risk_score": 9, "lat": 38.62263993708138, "lng": -121.32443950796599, "license_date": "11/20/2020", "closed_date": "12/7/2021"}, {"name": "NATURE'S LAB SCHOOL, LLC", "licensee": "ANDERSON, SILVIA M.", "address": "6201 WINDING WAY", "city": "CARMICHAEL", "zip": "95608", "capacity": 6, "status": "CLOSED", "risk_score": 9, "lat": 38.620238810763944, "lng": -121.32803834467175, "license_date": "11/20/2020", "closed_date": "12/7/2021"}, {"name": "KIRSCHENSTEIN FAMILY CHILD CARE", "licensee": "MARIA KIRSCHENSTEIN", "address": "Unavailable", "city": "SANTA MONICA", "zip": "90403", "capacity": 14, "status": "CLOSED", "risk_score": 9, "lat": 34.028124768395294, "lng": -118.50230046728204, "license_date": "5/19/2022", "closed_date": "8/1/2023"}, {"name": "WU, XIU LING", "licensee": "WU,XIU LING", "address": "Unavailable", "city": "SAN FRANCISCO", "zip": "94116", "capacity": 14, "status": "CLOSED", "risk_score": 9, "lat": 37.753684591719484, "lng": -122.48777320850759, "license_date": "8/22/2022", "closed_date": "7/3/2023"}, {"name": "WU, XIU LING", "licensee": "WU, XIU LING", "address": "Unavailable", "city": "SAN FRANCISCO", "zip": "94132", "capacity": 14, "status": "CLOSED", "risk_score": 9, "lat": 37.71567828198907, "lng": -122.48284886678503, "license_date": "12/8/2020", "closed_date": "8/22/2022"}, {"name": "GOOD SPORTS PLUS LTD (DBA) ARC - ST. TIMOTHY'S", "licensee": "GOOD SPORTS PLUS LTD", "address": "10497 WEST PICO BLVD", "city": "LOS ANGELES", "zip": "90064", "capacity": 39, "status": "CLOSED", "risk_score": 9, "lat": 34.043518753455864, "lng": -118.42304791155608, "license_date": "2/1/2022", "closed_date": "6/18/2022"}, {"name": "LEARNING TREE PRESCHOOL, THE", "licensee": "WILSON, DOUGLAS", "address": "3045 ROCKVILLE ROAD", "city": "FAIRFIELD", "zip": "94534", "capacity": 30, "status": "CLOSED", "risk_score": 9, "lat": 38.23442059511965, "lng": -122.1375056453753, "license_date": "12/11/2020", "closed_date": "10/4/2021"}, {"name": "LEARNING TREE PRESCHOOL, THE", "licensee": "WILSON, DOUGLAS", "address": "3045 ROCKVILLE ROAD", "city": "FAIRFIELD", "zip": "94534", "capacity": 30, "status": "CLOSED", "risk_score": 9, "lat": 38.2261287257939, "lng": -122.14307419116322, "license_date": "12/11/2020", "closed_date": "10/4/2021"}, {"name": "MOREY AVENUE EARLY LEARNING CENTER", "licensee": "TWIN RIVERS UNIFIED SCHOOL DISTRICT", "address": "155 MOREY AVENUE", "city": "SACRAMENTO", "zip": "95838", "capacity": 16, "status": "CLOSED", "risk_score": 9, "lat": 38.64125745664936, "lng": -121.43550537085811, "license_date": "3/10/2022", "closed_date": "1/25/2024"}, {"name": "BESA SCHOOL, THE", "licensee": "BESA SCHOOL, THE", "address": "15014 STUDEBAKER RD", "city": "NORWALK", "zip": "90650", "capacity": 45, "status": "CLOSED", "risk_score": 9, "lat": 33.908568206804006, "lng": -118.06912063736692, "license_date": "9/1/2020", "closed_date": "7/29/2022"}, {"name": "BESA SCHOOL, THE", "licensee": "BESA SCHOOL, THE", "address": "15014 STUDEBAKER RD", "city": "NORWALK", "zip": "90650", "capacity": 45, "status": "CLOSED", "risk_score": 9, "lat": 33.9086174189634, "lng": -118.08485424916839, "license_date": "9/1/2020", "closed_date": "7/29/2022"}, {"name": "YAROSHENKO, HALYNA FAMILY CHILD CARE", "licensee": "YAROSHENKO, HALYNA", "address": "Unavailable", "city": "SAN DIEGO", "zip": "92129", "capacity": 14, "status": "CLOSED", "risk_score": 9, "lat": 32.96630956782245, "lng": -117.13017823240273, "license_date": "3/27/2020", "closed_date": "8/9/2021"}, {"name": "YAROSHENKO, HALYNA FAMILY CHILD CARE", "licensee": "YAROSHENKO, HALYNA", "address": "Unavailable", "city": "SAN DIEGO", "zip": "92129", "capacity": 14, "status": "CLOSED", "risk_score": 9, "lat": 32.952000326728644, "lng": -117.1203644650511, "license_date": "3/27/2020", "closed_date": "8/9/2021"}, {"name": "YAROSHENKO, HALYNA FAMILY CHILD CARE", "licensee": "YAROSHENKO, HALYNA", "address": "Unavailable", "city": "SAN DIEGO", "zip": "92129", "capacity": 14, "status": "CLOSED", "risk_score": 9, "lat": 32.9607141041198, "lng": -117.11747529848124, "license_date": "3/27/2020", "closed_date": "8/9/2021"}, {"name": "OAKDALE EARLY LEARNING CENTER", "licensee": "TWIN RIVERS UNIFIED SCHOOL DISTRICT", "address": "3708 MYRTLE AVENUE", "city": "NORTH HIGHLANDS", "zip": "95660", "capacity": 8, "status": "CLOSED", "risk_score": 9, "lat": 38.61823085488715, "lng": -121.38133124245442, "license_date": "3/10/2022", "closed_date": "11/8/2023"}, {"name": "YMCA OF THE EAST BAY - FAIRGROUNDS ELC", "licensee": "YOUNG MEN'S CHRISTIAN ASSOCIATION OF THE EAST BAY", "address": "1203 WEST 10TH STREET", "city": "ANTIOCH", "zip": "94509", "capacity": 21, "status": "CLOSED", "risk_score": 9, "lat": 37.988336613701016, "lng": -121.78968092119696, "license_date": "10/14/2022", "closed_date": "8/9/2024"}, {"name": "YMCA OF THE EAST BAY - FAIRGROUNDS ELC", "licensee": "YOUNG MEN'S CHRISTIAN ASSOCIATION OF THE EAST BAY", "address": "1203 WEST 10TH STREET", "city": "ANTIOCH", "zip": "94509", "capacity": 21, "status": "CLOSED", "risk_score": 9, "lat": 37.9801919770041, "lng": -121.78930133059286, "license_date": "10/14/2022", "closed_date": "8/9/2024"}, {"name": "YMCA OF THE EAST BAY-JOHN MUIR", "licensee": "YOUNG MEN'S CHRISTIAN ASSOCIATION OF THE EAST BAY", "address": "24823 SOTO ROAD", "city": "HAYWARD", "zip": "94544", "capacity": 32, "status": "CLOSED", "risk_score": 9, "lat": 37.62745381275071, "lng": -122.07361682044728, "license_date": "1/4/2022", "closed_date": "11/21/2022"}, {"name": "YMCA OF THE EAST BAY-JOHN MUIR", "licensee": "YOUNG MEN'S CHRISTIAN ASSOCIATION OF THE EAST BAY", "address": "24823 SOTO ROAD", "city": "HAYWARD", "zip": "94544", "capacity": 32, "status": "CLOSED", "risk_score": 9, "lat": 37.62536132767712, "lng": -122.07639889802003, "license_date": "1/4/2022", "closed_date": "11/21/2022"}, {"name": "VISTA MONTESSORI COUNTRY PRESCHOOL", "licensee": "WAKE PROPERTIES INC", "address": "777 TAYLOR STREET", "city": "VISTA", "zip": "92084", "capacity": 8, "status": "CLOSED", "risk_score": 9, "lat": 33.213957625677914, "lng": -117.26810097393496, "license_date": "3/9/2020", "closed_date": "7/28/2021"}, {"name": "VISTA MONTESSORI COUNTRY PRESCHOOL", "licensee": "WAKE PROPERTIES INC", "address": "777 TAYLOR STREET", "city": "VISTA", "zip": "92084", "capacity": 8, "status": "CLOSED", "risk_score": 9, "lat": 33.2005690564869, "lng": -117.25005000261737, "license_date": "3/9/2020", "closed_date": "7/28/2021"}, {"name": "VILLAGE EARLY LEARNING CENTER", "licensee": "TWIN RIVERS UNIFIED SCHOOL DISTRICT", "address": "6845 LARCHMONT DRIVE", "city": "NORTH HIGHLANDS", "zip": "95660", "capacity": 8, "status": "CLOSED", "risk_score": 9, "lat": 38.60985346970532, "lng": -121.39409047624825, "license_date": "11/30/2021", "closed_date": "11/8/2023"}, {"name": "THOMSEN LEARNING CENTER", "licensee": "THOMSEN, PAMELA", "address": "217 EARLHAM STREET", "city": "RAMONA", "zip": "92065", "capacity": 12, "status": "CLOSED", "risk_score": 9, "lat": 33.037702768488074, "lng": -116.85474124274427, "license_date": "7/16/2022", "closed_date": "6/17/2024"}, {"name": "THOMSEN LEARNING CENTER", "licensee": "THOMSEN, PAMELA", "address": "217 EARLHAM STREET", "city": "RAMONA", "zip": "92065", "capacity": 12, "status": "CLOSED", "risk_score": 9, "lat": 33.040101147295886, "lng": -116.86312174531362, "license_date": "7/16/2022", "closed_date": "6/17/2024"}, {"name": "THOMSEN LEARNING CENTER", "licensee": "THOMSEN, PAMELA", "address": "217 EARLHAM STREET", "city": "RAMONA", "zip": "92065", "capacity": 12, "status": "CLOSED", "risk_score": 9, "lat": 33.035458077663996, "lng": -116.86252541482637, "license_date": "7/16/2022", "closed_date": "6/17/2024"}, {"name": "KARIMI, SAFA", "licensee": "KARIMI, SAFA", "address": "Unavailable", "city": "WEST SACRAMENTO", "zip": "95691", "capacity": 14, "status": "CLOSED", "risk_score": 9, "lat": 38.56827943259551, "lng": -121.55313665089993, "license_date": "8/23/2022", "closed_date": "8/30/2023"}, {"name": "KARIMI, SAFA", "licensee": "KARIMI, SAFA", "address": "Unavailable", "city": "WEST SACRAMENTO", "zip": "95691", "capacity": 14, "status": "CLOSED", "risk_score": 9, "lat": 38.586887454732164, "lng": -121.55207708435664, "license_date": "8/23/2022", "closed_date": "8/30/2023"}, {"name": "KAGRAMANYAN FAMILY CHILD CARE", "licensee": "REGINA KAGRAMANYAN", "address": "Unavailable", "city": "ESCONDIDO", "zip": "92025", "capacity": 14, "status": "CLOSED", "risk_score": 9, "lat": 33.1195440289643, "lng": -117.09789601025663, "license_date": "3/4/2022", "closed_date": "1/5/2024"}, {"name": "GARCIA, LYDIA FAMILY CHILD CARE", "licensee": "GARCIA, LYDIA", "address": "Unavailable", "city": "VISALIA", "zip": "93292", "capacity": 14, "status": "CLOSED", "risk_score": 9, "lat": 36.35223979158744, "lng": -119.22433057471015, "license_date": "10/2/2020", "closed_date": "5/31/2022"}, {"name": "GARCIA, LYDIA FAMILY CHILD CARE", "licensee": "GARCIA, LYDIA", "address": "Unavailable", "city": "VISALIA", "zip": "93292", "capacity": 14, "status": "CLOSED", "risk_score": 9, "lat": 36.362119502471295, "lng": -119.22768665242012, "license_date": "10/2/2020", "closed_date": "5/31/2022"}, {"name": "GARCIA, LYDIA FAMILY CHILD CARE", "licensee": "GARCIA, LYDIA", "address": "Unavailable", "city": "VISALIA", "zip": "93292", "capacity": 14, "status": "CLOSED", "risk_score": 9, "lat": 36.3584613437921, "lng": -119.23794785558532, "license_date": "10/2/2020", "closed_date": "5/31/2022"}, {"name": "GARCIA, LYDIA FAMILY CHILD CARE", "licensee": "GARCIA, LYDIA", "address": "Unavailable", "city": "VISALIA", "zip": "93292", "capacity": 14, "status": "CLOSED", "risk_score": 9, "lat": 36.363238743379284, "lng": -119.24179673342772, "license_date": "10/2/2020", "closed_date": "5/31/2022"}, {"name": "HILLTOP ACADEMY", "licensee": "HILLTOP PENTECOSTAL TABERNACLE OF CHULA VISTA, CA", "address": "346 L STREET", "city": "CHULA VISTA", "zip": "91911", "capacity": 19, "status": "CLOSED", "risk_score": 9, "lat": 32.60175815396894, "lng": -117.02693205831962, "license_date": "3/4/2021", "closed_date": "2/10/2023"}, {"name": "SEDIQI, MONISA  FCCH", "licensee": "SEDIQI, MONISA", "address": "Unavailable", "city": "FAIRFIELD", "zip": "94534", "capacity": 14, "status": "CLOSED", "risk_score": 9, "lat": 38.23718581988885, "lng": -122.14365986011389, "license_date": "4/7/2020", "closed_date": "7/14/2021"}, {"name": "SIDDIQUI FAMILY CHILD CARE", "licensee": "ASMA SIDDIQUI", "address": "Unavailable", "city": "LOMITA", "zip": "90717", "capacity": 14, "status": "CLOSED", "risk_score": 9, "lat": 33.80014118018822, "lng": -118.31467591371708, "license_date": "8/31/2021", "closed_date": "2/1/2023"}, {"name": "SIDDIQUI FAMILY CHILD CARE", "licensee": "ASMA SIDDIQUI", "address": "Unavailable", "city": "LOMITA", "zip": "90717", "capacity": 14, "status": "CLOSED", "risk_score": 9, "lat": 33.799081156429374, "lng": -118.31188552114489, "license_date": "8/31/2021", "closed_date": "2/1/2023"}, {"name": "NEIGHBORHOOD CHRISTIAN PRESCHOOL", "licensee": "AGAPE SCHOOLS", "address": "1670 MOORPARK AVENUE", "city": "SAN JOSE", "zip": "95128", "capacity": 18, "status": "CLOSED", "risk_score": 9, "lat": 37.317849001253734, "lng": -121.93632017047439, "license_date": "9/28/2020", "closed_date": "12/9/2020"}, {"name": "NEIGHBORHOOD CHRISTIAN PRESCHOOL", "licensee": "AGAPE SCHOOLS", "address": "1670 MOORPARK AVENUE", "city": "SAN JOSE", "zip": "95128", "capacity": 18, "status": "CLOSED", "risk_score": 9, "lat": 37.321412087762525, "lng": -121.9326596569922, "license_date": "9/28/2020", "closed_date": "12/9/2020"}, {"name": "NEIGHBORHOOD CHRISTIAN PRESCHOOL", "licensee": "AGAPE SCHOOLS", "address": "1670 MOORPARK AVENUE", "city": "SAN JOSE", "zip": "95128", "capacity": 18, "status": "CLOSED", "risk_score": 9, "lat": 37.30810435636405, "lng": -121.93594292486948, "license_date": "9/28/2020", "closed_date": "12/9/2020"}, {"name": "MOTTINO FAMILY YMCA - BELLA MENTE ACADEMIES", "licensee": "YMCA OF SAN DIEGO", "address": "1737 W VISTA WAY", "city": "VISTA", "zip": "92083", "capacity": 40, "status": "CLOSED", "risk_score": 9, "lat": 33.2015047587719, "lng": -117.24002814978334, "license_date": "8/27/2022", "closed_date": "7/1/2024"}, {"name": "LAGUERRE, VERONIQUE FAMILY CHILD CARE", "licensee": "LAGUERRE, VERONIQUE", "address": "Unavailable", "city": "SAN DIEGO", "zip": "92105", "capacity": 14, "status": "CLOSED", "risk_score": 9, "lat": 32.73604297767128, "lng": -117.08848295934791, "license_date": "11/8/2022", "closed_date": "2/27/2024"}, {"name": "LAGUERRE, VERONIQUE FAMILY CHILD CARE", "licensee": "LAGUERRE, VERONIQUE", "address": "Unavailable", "city": "SAN DIEGO", "zip": "92105", "capacity": 14, "status": "CLOSED", "risk_score": 9, "lat": 32.744065442404946, "lng": -117.10368282538424, "license_date": "11/8/2022", "closed_date": "2/27/2024"}, {"name": "LAGUERRE, VERONIQUE FAMILY CHILD CARE", "licensee": "LAGUERRE, VERONIQUE", "address": "Unavailable", "city": "SAN DIEGO", "zip": "92105", "capacity": 14, "status": "CLOSED", "risk_score": 9, "lat": 32.75259279651407, "lng": -117.10128651267134, "license_date": "11/8/2022", "closed_date": "2/27/2024"}, {"name": "LAGRONE WHITE, VERA FAMILY CHILD CARE", "licensee": "LAGRONE WHITE, VERA", "address": "Unavailable", "city": "SAN DIEGO", "zip": "92114", "capacity": 14, "status": "CLOSED", "risk_score": 9, "lat": 32.71078600606381, "lng": -117.04465593141249, "license_date": "12/30/2022", "closed_date": "10/1/2024"}, {"name": "LITTLE EXPLORERS PRESCHOOL CENTER", "licensee": "ASHLEY ALVA", "address": "44832 CEDAR AVE", "city": "LANCASTER", "zip": "93534", "capacity": 6, "status": "CLOSED", "risk_score": 9, "lat": 34.6986251797753, "lng": -118.14336722902672, "license_date": "7/9/2020", "closed_date": "5/16/2022"}, {"name": "LITTLE EXPLORERS PRESCHOOL CENTER", "licensee": "ASHLEY ALVA", "address": "44832 CEDAR AVE", "city": "LANCASTER", "zip": "93534", "capacity": 6, "status": "CLOSED", "risk_score": 9, "lat": 34.696155568836964, "lng": -118.14118218789906, "license_date": "7/9/2020", "closed_date": "5/16/2022"}, {"name": "LITTLE EXPLORERS PRESCHOOL CENTER", "licensee": "ASHLEY ALVA", "address": "44832 CEDAR AVE", "city": "LANCASTER", "zip": "93534", "capacity": 6, "status": "CLOSED", "risk_score": 9, "lat": 34.69975953987698, "lng": -118.13016154356518, "license_date": "7/9/2020", "closed_date": "5/16/2022"}, {"name": "ENCINITAS SHINING STARS INFANT CENTER", "licensee": "ELLINS, PAUL", "address": "511 ENCINITAS BOULEVARD #114", "city": "ENCINITAS", "zip": "92024", "capacity": 10, "status": "CLOSED", "risk_score": 9, "lat": 33.03943577126162, "lng": -117.27160742730285, "license_date": "5/4/2021", "closed_date": "11/3/2022"}, {"name": "PINA FAMILY CHILD CARE", "licensee": "ANGELA PINA", "address": "Unavailable", "city": "INGLEWOOD", "zip": "90303", "capacity": 14, "status": "CLOSED", "risk_score": 9, "lat": 33.93098012027993, "lng": -118.3414032241225, "license_date": "4/8/2021", "closed_date": "6/28/2022"}, {"name": "PINA FAMILY CHILD CARE", "licensee": "ANGELA PINA", "address": "Unavailable", "city": "INGLEWOOD", "zip": "90303", "capacity": 14, "status": "CLOSED", "risk_score": 9, "lat": 33.93913726075369, "lng": -118.3389662758849, "license_date": "4/8/2021", "closed_date": "6/28/2022"}, {"name": "PINA FAMILY CHILD CARE", "licensee": "ANGELA PINA", "address": "Unavailable", "city": "INGLEWOOD", "zip": "90303", "capacity": 14, "status": "CLOSED", "risk_score": 9, "lat": 33.94550108706385, "lng": -118.34050975229792, "license_date": "4/8/2021", "closed_date": "6/28/2022"}, {"name": "KIDS INC PRESCHOOL & DISCOVERY CENTER", "licensee": "VACCARO, KELLI", "address": "1740 PRAIRIE CITY ROAD", "city": "FOLSOM", "zip": "95630", "capacity": 34, "status": "CLOSED", "risk_score": 9, "lat": 38.67035295450785, "lng": -121.16488212945262, "license_date": "8/6/2020", "closed_date": "3/23/2022"}, {"name": "KIDS INC PRESCHOOL & DISCOVERY CENTER", "licensee": "VACCARO, KELLI", "address": "1740 PRAIRIE CITY ROAD", "city": "FOLSOM", "zip": "95630", "capacity": 34, "status": "CLOSED", "risk_score": 9, "lat": 38.66491393618874, "lng": -121.14876050412714, "license_date": "8/6/2020", "closed_date": "3/23/2022"}, {"name": "KIDS INC PRESCHOOL & DISCOVERY CENTER", "licensee": "VACCARO, KELLI", "address": "1740 PRAIRIE CITY ROAD", "city": "FOLSOM", "zip": "95630", "capacity": 34, "status": "CLOSED", "risk_score": 9, "lat": 38.66499415650986, "lng": -121.15649244502805, "license_date": "8/6/2020", "closed_date": "3/23/2022"}, {"name": "CASTILLO FAMILY CHILD CARE", "licensee": "CASTILLO, MARIA", "address": "Unavailable", "city": "SANTA MARIA", "zip": "93454", "capacity": 14, "status": "CLOSED", "risk_score": 9, "lat": 34.948291282892704, "lng": -120.4306124274218, "license_date": "9/19/2022", "closed_date": "5/31/2024"}, {"name": "CASTILLO FAMILY CHILD CARE", "licensee": "CASTILLO, MARIA", "address": "Unavailable", "city": "SANTA MARIA", "zip": "93454", "capacity": 14, "status": "CLOSED", "risk_score": 9, "lat": 34.949058846947274, "lng": -120.44233068034873, "license_date": "9/19/2022", "closed_date": "5/31/2024"}, {"name": "CASTILLO FAMILY CHILD CARE", "licensee": "CASTILLO, MARIA", "address": "Unavailable", "city": "SANTA MARIA", "zip": "93454", "capacity": 14, "status": "CLOSED", "risk_score": 9, "lat": 34.95030155318873, "lng": -120.43768732330409, "license_date": "9/19/2022", "closed_date": "5/31/2024"}, {"name": "CASTILLO FAMILY CHILD CARE", "licensee": "CASTILLO, MARIA", "address": "Unavailable", "city": "SANTA MARIA", "zip": "93454", "capacity": 14, "status": "CLOSED", "risk_score": 9, "lat": 34.940190809963624, "lng": -120.43621589504491, "license_date": "9/19/2022", "closed_date": "5/31/2024"}, {"name": "CASTILLO FAMILY CHILD CARE", "licensee": "CASTILLO, MARIA", "address": "Unavailable", "city": "SANTA MARIA", "zip": "93454", "capacity": 14, "status": "CLOSED", "risk_score": 9, "lat": 34.940739066460644, "lng": -120.44210557790609, "license_date": "9/19/2022", "closed_date": "5/31/2024"}, {"name": "BRIGHT SPOT EARLY LEARNING CENTER LLC", "licensee": "BRIGHT SPOT EARLY LEARNING CENTER LLC", "address": "3198 FULTON STREET", "city": "SAN FRANCISCO", "zip": "94118", "capacity": 29, "status": "CLOSED", "risk_score": 8, "lat": 37.78981448709545, "lng": -122.46655433419815, "license_date": "11/9/2022", "closed_date": "8/25/2023"}, {"name": "GRANITE BAY MONTESSORI", "licensee": "CHILD DEVELOPMENT SERVICES, INC.", "address": "9330 SIERRA COLLEGE BLVD.", "city": "ROSEVILLE", "zip": "95661", "capacity": 80, "status": "CLOSED", "risk_score": 8, "lat": 38.74110386899617, "lng": -121.23884014817617, "license_date": "9/17/2020", "closed_date": "7/23/2021"}, {"name": "SJB- GATEWAY CHILD DEVELOPMENT CENTER", "licensee": "SJB CHILD DEVELOPMENT CENTERS", "address": "7151 HANNA STREET", "city": "GILROY", "zip": "95020", "capacity": 36, "status": "CLOSED", "risk_score": 8, "lat": 37.01489885650443, "lng": -121.56397284414909, "license_date": "7/6/2023", "closed_date": "3/18/2024"}, {"name": "SUPERIOR CHILDREN'S CENTER", "licensee": "BRIGHT HORIZONS CHILDREN CENTER LLC", "address": "4301 E. COMMERCE WAY", "city": "SACRAMENTO", "zip": "95834", "capacity": 48, "status": "CLOSED", "risk_score": 8, "lat": 38.64108262910662, "lng": -121.51863552726927, "license_date": "5/17/2021", "closed_date": "12/22/2022"}, {"name": "AGAPE PLAYSKOOL", "licensee": "AGAPE LEARNING CENTER, LLC", "address": "181 EAST TASMAN DRIVE #70", "city": "SAN JOSE", "zip": "95134", "capacity": 45, "status": "CLOSED", "risk_score": 8, "lat": 37.42321792237419, "lng": -121.93973532442588, "license_date": "4/18/2022", "closed_date": "5/13/2023"}, {"name": "AGAPE PLAYSKOOL", "licensee": "AGAPE LEARNING CENTER, LLC", "address": "181 EAST TASMAN DRIVE #70", "city": "SAN JOSE", "zip": "95134", "capacity": 45, "status": "CLOSED", "risk_score": 8, "lat": 37.42633674662741, "lng": -121.94529438127871, "license_date": "4/18/2022", "closed_date": "5/13/2023"}, {"name": "MIRA MESA CHRISTIAN PRESCHOOL", "licensee": "MESA CHRISTIAN SCHOOLS", "address": "10770 RICKERT ROAD", "city": "SAN DIEGO", "zip": "92126", "capacity": 12, "status": "CLOSED", "risk_score": 7, "lat": 32.904187105370525, "lng": -117.13907978619072, "license_date": "12/16/2020", "closed_date": "10/4/2021"}, {"name": "MIRA MESA CHRISTIAN PRESCHOOL", "licensee": "MESA CHRISTIAN SCHOOLS", "address": "10770 RICKERT ROAD", "city": "SAN DIEGO", "zip": "92126", "capacity": 12, "status": "CLOSED", "risk_score": 7, "lat": 32.91484261618905, "lng": -117.14393690013881, "license_date": "12/16/2020", "closed_date": "10/4/2021"}, {"name": "ORAHA, HUDA FAMILY CHILD CARE", "licensee": "ORAHA, HUDA", "address": "Unavailable", "city": "EL CAJON", "zip": "92020", "capacity": 14, "status": "CLOSED", "risk_score": 7, "lat": 32.79478873377444, "lng": -116.95234306236163, "license_date": "6/7/2024", "closed_date": "2/26/2025"}, {"name": "ORAHA, HUDA FAMILY CHILD CARE", "licensee": "ORAHA, HUDA", "address": "Unavailable", "city": "EL CAJON", "zip": "92020", "capacity": 14, "status": "CLOSED", "risk_score": 7, "lat": 32.79958646955404, "lng": -116.96916585189054, "license_date": "6/7/2024", "closed_date": "2/26/2025"}, {"name": "ORAHA, HUDA FAMILY CHILD CARE", "licensee": "ORAHA, HUDA", "address": "Unavailable", "city": "EL CAJON", "zip": "92020", "capacity": 14, "status": "CLOSED", "risk_score": 7, "lat": 32.79183270150899, "lng": -116.97094004713036, "license_date": "6/7/2024", "closed_date": "2/26/2025"}, {"name": "LEARNING WHEEL PRESCHOOL, THE", "licensee": "KAUR, LLC, THE", "address": "1432 CONCANNON BOULEVARD", "city": "LIVERMORE", "zip": "94550", "capacity": 14, "status": "CLOSED", "risk_score": 7, "lat": 37.67170664599691, "lng": -121.76667167068463, "license_date": "5/23/2023", "closed_date": "2/27/2024"}, {"name": "LEARNING SPRINGS ACADEMY INC.", "licensee": "LEARNING SPRINGS ACADEMY INC.", "address": "1774 FOXWORTHY AVENUE, BLDG1", "city": "SAN JOSE", "zip": "95124", "capacity": 30, "status": "CLOSED", "risk_score": 7, "lat": 37.267912451494894, "lng": -121.91201227945197, "license_date": "12/18/2020", "closed_date": "6/22/2022"}, {"name": "GUTIERREZ, DANIELLE FAMILY CHILD CARE", "licensee": "GUTIERREZ, DANIELLE", "address": "Unavailable", "city": "SAN DIEGO", "zip": "92120", "capacity": 12, "status": "CLOSED", "risk_score": 7, "lat": 32.79079254725623, "lng": -117.0765579429015, "license_date": "10/13/2023", "closed_date": "11/15/2024"}, {"name": "GUTIERREZ, DANIELLE FAMILY CHILD CARE", "licensee": "GUTIERREZ, DANIELLE", "address": "Unavailable", "city": "SAN DIEGO", "zip": "92120", "capacity": 12, "status": "CLOSED", "risk_score": 7, "lat": 32.80486876987757, "lng": -117.07173638511712, "license_date": "10/13/2023", "closed_date": "11/15/2024"}, {"name": "GUTIERREZ, DANIELLE FAMILY CHILD CARE", "licensee": "GUTIERREZ, DANIELLE", "address": "Unavailable", "city": "SAN DIEGO", "zip": "92120", "capacity": 12, "status": "CLOSED", "risk_score": 7, "lat": 32.7970450218162, "lng": -117.07443704669228, "license_date": "10/13/2023", "closed_date": "11/15/2024"}, {"name": "OSOKINA, EKATERINA", "licensee": "OSOKINA, EKATERINA", "address": "Unavailable", "city": "SO. SAN FRANCISCO", "zip": "94080", "capacity": 14, "status": "CLOSED", "risk_score": 7, "lat": 37.65898255764849, "lng": -122.42214222483176, "license_date": "10/21/2020", "closed_date": "10/26/2021"}, {"name": "HAMDARD, MAMOONA FAMILY CHILD CARE", "licensee": "HAMDARD, MAMOONA", "address": "Unavailable", "city": "EL CAJON", "zip": "92021", "capacity": 14, "status": "CLOSED", "risk_score": 7, "lat": 32.820105960133446, "lng": -116.95699974143677, "license_date": "2/19/2020", "closed_date": "8/19/2021"}, {"name": "HAMDARD, MAMOONA FAMILY CHILD CARE", "licensee": "HAMDARD, MAMOONA", "address": "Unavailable", "city": "EL CAJON", "zip": "92021", "capacity": 14, "status": "CLOSED", "risk_score": 7, "lat": 32.82214250459142, "lng": -116.95658143133797, "license_date": "2/19/2020", "closed_date": "8/19/2021"}, {"name": "OSORNO TORRES FAMILY CHILD CARE", "licensee": "JAQUELINE OSORNO TORRES", "address": "Unavailable", "city": "LONG BEACH", "zip": "90808", "capacity": 14, "status": "CLOSED", "risk_score": 7, "lat": 33.82183991075185, "lng": -118.10559117034282, "license_date": "2/27/2020", "closed_date": "1/5/2021"}, {"name": "HAMPTON FAMILY CHILD CARE", "licensee": "DEANNA HAMPTON", "address": "Unavailable", "city": "LOS ANGELES", "zip": "90008", "capacity": 14, "status": "CLOSED", "risk_score": 7, "lat": 34.020384097703214, "lng": -118.33652613299478, "license_date": "3/9/2022", "closed_date": "6/9/2023"}, {"name": "PACHECO, NEUSA", "licensee": "PACHECO, NEUSA", "address": "Unavailable", "city": "SAN JOSE", "zip": "95129", "capacity": 14, "status": "CLOSED", "risk_score": 7, "lat": 37.30546493664496, "lng": -121.99377427090641, "license_date": "12/17/2021", "closed_date": "9/15/2022"}, {"name": "PERAZA, BRENDA FAMILY CHILD CARE", "licensee": "PERAZA, BRENDA", "address": "Unavailable", "city": "SAN DIEGO", "zip": "92154", "capacity": 14, "status": "CLOSED", "risk_score": 7, "lat": 32.56725436713772, "lng": -117.05836171412888, "license_date": "4/10/2020", "closed_date": "2/18/2022"}, {"name": "PERAZA, BRENDA FAMILY CHILD CARE", "licensee": "PERAZA, BRENDA", "address": "Unavailable", "city": "SAN DIEGO", "zip": "92154", "capacity": 14, "status": "CLOSED", "risk_score": 7, "lat": 32.58279932352967, "lng": -117.04471968421645, "license_date": "4/10/2020", "closed_date": "2/18/2022"}, {"name": "PERAZA, BRENDA FAMILY CHILD CARE", "licensee": "PERAZA, BRENDA", "address": "Unavailable", "city": "SAN DIEGO", "zip": "92154", "capacity": 14, "status": "CLOSED", "risk_score": 7, "lat": 32.56763398554549, "lng": -117.05899799190115, "license_date": "4/10/2020", "closed_date": "2/18/2022"}, {"name": "PERUZZARO, ANDRIANA", "licensee": "PERUZZARO, ANDRIANA", "address": "Unavailable", "city": "LIVERMORE", "zip": "94550", "capacity": 14, "status": "CLOSED", "risk_score": 7, "lat": 37.680222656910864, "lng": -121.77876720202504, "license_date": "10/4/2021", "closed_date": "8/23/2022"}, {"name": "PERUZZARO, ANDRIANA", "licensee": "PERUZZARO, ANDRIANA", "address": "Unavailable", "city": "LIVERMORE", "zip": "94550", "capacity": 14, "status": "CLOSED", "risk_score": 7, "lat": 37.672043563050906, "lng": -121.77295930135065, "license_date": "10/4/2021", "closed_date": "8/23/2022"}, {"name": "PHAM, PAULINA", "licensee": "PHAM, PAULINA", "address": "Unavailable", "city": "SAN JOSE", "zip": "95128", "capacity": 14, "status": "CLOSED", "risk_score": 7, "lat": 37.321438093301545, "lng": -121.93261343002477, "license_date": "10/13/2021", "closed_date": "10/12/2022"}, {"name": "KOL FAMILY CHILD CARE", "licensee": "KOL, BOTTA", "address": "Unavailable", "city": "SANTA BARBARA", "zip": "93103", "capacity": 14, "status": "CLOSED", "risk_score": 7, "lat": 34.43441447541086, "lng": -119.67397067359204, "license_date": "10/10/2022", "closed_date": "2/27/2023"}, {"name": "MISSION VALLEY YMCA - SACRED HEART PARISH SCHOOL", "licensee": "YMCA OF SAN DIEGO COUNTY", "address": "706 C AVE", "city": "CORONADO", "zip": "92118", "capacity": 54, "status": "CLOSED", "risk_score": 7, "lat": 32.68933158937456, "lng": -117.1638304729891, "license_date": "11/22/2022", "closed_date": "2/1/2024"}, {"name": "KLUNDT, HEATHER FAMILY CHILD CARE", "licensee": "KLUNDT, HEATHER", "address": "Unavailable", "city": "FRESNO", "zip": "93710", "capacity": 14, "status": "CLOSED", "risk_score": 7, "lat": 36.81391394462849, "lng": -119.75921053624874, "license_date": "10/21/2020", "closed_date": "11/29/2021"}, {"name": "GONZALES, ARCELY & REYCASA, MONIQUE FCC", "licensee": "GONZALES, ARCELY & REYCASA, MONIQUE", "address": "Unavailable", "city": "SAN DIEGO", "zip": "92126", "capacity": 14, "status": "CLOSED", "risk_score": 7, "lat": 32.90682610604231, "lng": -117.13248487045692, "license_date": "8/20/2021", "closed_date": "12/22/2022"}, {"name": "FRANCISCO FAMILY CHILD CARE", "licensee": "LORIENA FRANCISCO", "address": "Unavailable", "city": "LANCASTER", "zip": "93536", "capacity": 14, "status": "CLOSED", "risk_score": 7, "lat": 34.71009046393978, "lng": -118.24176107567651, "license_date": "8/26/2022", "closed_date": "8/12/2024"}, {"name": "RIGHT AT SCHOOL AT FRANK HUFF", "licensee": "RIGHT AT SCHOOL, LLC.", "address": "253 MARTENS AVENUE", "city": "MOUNTAIN VIEW", "zip": "94040", "capacity": 120, "status": "CLOSED", "risk_score": 7, "lat": 37.38806551726635, "lng": -122.09294448275512, "license_date": "8/14/2019", "closed_date": "4/1/2021"}, {"name": "FRY, DEONNA", "licensee": "DEONNA FRY", "address": "Unavailable", "city": "ORANGEVALE", "zip": "95662", "capacity": 14, "status": "CLOSED", "risk_score": 7, "lat": 38.678896927715684, "lng": -121.22292249367221, "license_date": "11/30/2020", "closed_date": "9/9/2022"}, {"name": "RIGHT AT SCHOOL AT EDITH LANDELS", "licensee": "RIGHT AT SCHOOL, LLC.", "address": "115 W. DANA STREET", "city": "MOUNTAIN VIEW", "zip": "94041", "capacity": 113, "status": "CLOSED", "risk_score": 7, "lat": 37.39726653022485, "lng": -122.07428866139954, "license_date": "8/8/2019", "closed_date": "4/1/2021"}, {"name": "LAZUTKINA, NATALIA", "licensee": "LAZUTKINA, NATALIA", "address": "Unavailable", "city": "SAN JOSE", "zip": "95120", "capacity": 14, "status": "CLOSED", "risk_score": 7, "lat": 37.21594059001507, "lng": -121.82714626307961, "license_date": "10/6/2020", "closed_date": "8/15/2021"}, {"name": "GARCIA FCC AKA ITS A FUN DAY CHILD CARE", "licensee": "ANGELICA GARCIA", "address": "Unavailable", "city": "SANTA MARIA", "zip": "93458", "capacity": 14, "status": "CLOSED", "risk_score": 7, "lat": 34.983414782734954, "lng": -120.4244375573743, "license_date": "6/28/2024", "closed_date": "4/30/2025"}, {"name": "GARCIA FCC AKA ITS A FUN DAY CHILD CARE", "licensee": "ANGELICA GARCIA", "address": "Unavailable", "city": "SANTA MARIA", "zip": "93458", "capacity": 14, "status": "CLOSED", "risk_score": 7, "lat": 34.98512470525357, "lng": -120.41154777382563, "license_date": "6/28/2024", "closed_date": "4/30/2025"}, {"name": "RIGHT AT SCHOOL AT CRITTENDEN MIDDLE", "licensee": "RIGHT AT SCHOOL, LLC.", "address": "1701 ROCK STREET", "city": "MOUNTAIN VIEW", "zip": "94043", "capacity": 120, "status": "CLOSED", "risk_score": 7, "lat": 37.40736092393708, "lng": -122.07757186252073, "license_date": "8/14/2019", "closed_date": "4/1/2021"}, {"name": "NURISTANI, ARZOO", "licensee": "NURISTANI, ARZOO", "address": "Unavailable", "city": "SACRAMENTO", "zip": "95815", "capacity": 14, "status": "CLOSED", "risk_score": 7, "lat": 38.598889156426495, "lng": -121.43411578950789, "license_date": "8/12/2021", "closed_date": "4/18/2023"}, {"name": "GARCIA FCCH AKA IT'S A FUN DAY CHILD CARE", "licensee": "ANGELICA GARCIA", "address": "Unavailable", "city": "SANTA MARIA", "zip": "93458", "capacity": 14, "status": "CLOSED", "risk_score": 7, "lat": 34.97907280741127, "lng": -120.42743836593064, "license_date": "2/22/2023", "closed_date": "6/28/2024"}, {"name": "PACIFIC CAMPS FAMILY RESOURCE INC.", "licensee": "PACIFIC CAMPS FAMILY RESOURCE INC.", "address": "4050 MARKET", "city": "VENTURA", "zip": "93003", "capacity": 90, "status": "CLOSED", "risk_score": 7, "lat": 34.26600538610209, "lng": -119.22736481124565, "license_date": "10/10/2022", "closed_date": "3/18/2024"}, {"name": "GASTELUM, LAURA FAMILY CHILD CARE", "licensee": "GASTELUM, LAURA", "address": "Unavailable", "city": "SAN DIEGO", "zip": "92154", "capacity": 14, "status": "CLOSED", "risk_score": 7, "lat": 32.5830691345125, "lng": -117.06041166239694, "license_date": "4/19/2023", "closed_date": "11/13/2023"}, {"name": "GASTELUM, LAURA FAMILY CHILD CARE", "licensee": "GASTELUM, LAURA", "address": "Unavailable", "city": "SAN DIEGO", "zip": "92154", "capacity": 14, "status": "CLOSED", "risk_score": 7, "lat": 32.58073794130897, "lng": -117.05193526579002, "license_date": "4/19/2023", "closed_date": "11/13/2023"}, {"name": "GASTELUM, LAURA FAMILY CHILD CARE", "licensee": "GASTELUM, LAURA", "address": "Unavailable", "city": "SAN DIEGO", "zip": "92154", "capacity": 14, "status": "CLOSED", "risk_score": 7, "lat": 32.567574290762416, "lng": -117.04750386712344, "license_date": "4/19/2023", "closed_date": "11/13/2023"}, {"name": "GIBBS, JASMINE FAMILY CHILD CARE", "licensee": "GIBBS, JASMINE", "address": "Unavailable", "city": "SAN DIEGO", "zip": "92124", "capacity": 14, "status": "CLOSED", "risk_score": 7, "lat": 32.820268125427944, "lng": -117.10305117607616, "license_date": "3/3/2020", "closed_date": "5/24/2021"}, {"name": "GIBBS, JASMINE FAMILY CHILD CARE", "licensee": "GIBBS, JASMINE", "address": "Unavailable", "city": "SAN DIEGO", "zip": "92124", "capacity": 14, "status": "CLOSED", "risk_score": 7, "lat": 32.832918633619265, "lng": -117.10517542784214, "license_date": "3/3/2020", "closed_date": "5/24/2021"}, {"name": "OLGUIN FAMILY CHILD CARE", "licensee": "ADA OLGUIN", "address": "Unavailable", "city": "SANTA MONICA", "zip": "90404", "capacity": 14, "status": "CLOSED", "risk_score": 7, "lat": 34.03030733472301, "lng": -118.47435228943944, "license_date": "9/23/2022", "closed_date": "4/4/2023"}, {"name": "OLGUIN FAMILY CHILD CARE", "licensee": "ADA OLGUIN", "address": "Unavailable", "city": "SANTA MONICA", "zip": "90404", "capacity": 14, "status": "CLOSED", "risk_score": 7, "lat": 34.03202457433042, "lng": -118.48526161319799, "license_date": "9/23/2022", "closed_date": "4/4/2023"}, {"name": "GILES FAMILY CHILD CARE", "licensee": "CHARLOTTE GILES", "address": "Unavailable", "city": "LAKEWOOD", "zip": "90712", "capacity": 14, "status": "CLOSED", "risk_score": 7, "lat": 33.84031660288661, "lng": -118.14522976987242, "license_date": "12/16/2020", "closed_date": "6/1/2022"}, {"name": "GILES FAMILY CHILD CARE", "licensee": "CHARLOTTE GILES", "address": "Unavailable", "city": "LAKEWOOD", "zip": "90712", "capacity": 14, "status": "CLOSED", "risk_score": 7, "lat": 33.84628289692654, "lng": -118.14805565235987, "license_date": "12/16/2020", "closed_date": "6/1/2022"}, {"name": "PINEDA FAMILY CHILD CARE", "licensee": "ERICA PINEDA", "address": "Unavailable", "city": "PARAMOUNT", "zip": "90723", "capacity": 14, "status": "CLOSED", "risk_score": 7, "lat": 33.887949497454876, "lng": -118.20547375732293, "license_date": "8/4/2022", "closed_date": "5/20/2024"}, {"name": "HARTMANN, MELANIE", "licensee": "HARTMANN, MELANIE", "address": "Unavailable", "city": "MOUNTAIN VIEW", "zip": "94040", "capacity": 14, "status": "CLOSED", "risk_score": 7, "lat": 37.38997054160029, "lng": -122.07368962285894, "license_date": "7/23/2021", "closed_date": "8/5/2022"}, {"name": "FLUTY, BRENDA", "licensee": "FLUTY, BRENDA", "address": "Unavailable", "city": "GALT", "zip": "95632", "capacity": 14, "status": "CLOSED", "risk_score": 7, "lat": 38.23391283054293, "lng": -121.26573648239726, "license_date": "6/18/2021", "closed_date": "4/24/2023"}, {"name": "FLUTY, BRENDA", "licensee": "FLUTY, BRENDA", "address": "Unavailable", "city": "GALT", "zip": "95632", "capacity": 14, "status": "CLOSED", "risk_score": 7, "lat": 38.22443760779369, "lng": -121.26346755051073, "license_date": "6/18/2021", "closed_date": "4/24/2023"}, {"name": "HOWELL, MARLENE", "licensee": "HOWELL, MARLENE", "address": "Unavailable", "city": "OAKLEY", "zip": "94561", "capacity": 14, "status": "CLOSED", "risk_score": 7, "lat": 37.991645032113226, "lng": -121.68642609711888, "license_date": "5/29/2020", "closed_date": "6/9/2021"}, {"name": "RAMIREZ FCCH", "licensee": "CECILIA RAMIREZ", "address": "Unavailable", "city": "SANTA MARIA", "zip": "93458", "capacity": 14, "status": "CLOSED", "risk_score": 7, "lat": 34.98536112703853, "lng": -120.41067072019695, "license_date": "2/24/2023", "closed_date": "5/6/2024"}, {"name": "BRIGHT HORIZONS AT SUNNYVALE", "licensee": "BRIGHT HORIZONS CHILDREN'S CENTER LLC", "address": "1010 SUNNYVALE - SARATOGA ROAD", "city": "SUNNYVALE", "zip": "94087", "capacity": 14, "status": "INACTIVE", "risk_score": 7, "lat": 37.3494773812607, "lng": -122.03246020606815, "license_date": "6/14/2021", "closed_date": "nan"}, {"name": "RASHID FAMILY CHILD CARE", "licensee": "SHAMA RASHID", "address": "Unavailable", "city": "SAN PEDRO", "zip": "90732", "capacity": 14, "status": "CLOSED", "risk_score": 7, "lat": 33.75650342819677, "lng": -118.31931838385071, "license_date": "4/26/2022", "closed_date": "3/1/2023"}, {"name": "RASHID FAMILY CHILD CARE", "licensee": "SHAMA RASHID", "address": "Unavailable", "city": "SAN PEDRO", "zip": "90732", "capacity": 14, "status": "CLOSED", "risk_score": 7, "lat": 33.76896367183181, "lng": -118.32194475144779, "license_date": "4/26/2022", "closed_date": "3/1/2023"}, {"name": "KHALIF, SAMSAM FAMILY CHILD CARE", "licensee": "KHALIF, SAMSAM", "address": "Unavailable", "city": "SAN DIEGO", "zip": "92111", "capacity": 14, "status": "CLOSED", "risk_score": 7, "lat": 32.80156132655838, "lng": -117.17595766402825, "license_date": "12/4/2019", "closed_date": "11/20/2020"}, {"name": "KHALIF, SAMSAM FAMILY CHILD CARE", "licensee": "KHALIF, SAMSAM", "address": "Unavailable", "city": "SAN DIEGO", "zip": "92111", "capacity": 14, "status": "CLOSED", "risk_score": 7, "lat": 32.811060886998824, "lng": -117.16348411297555, "license_date": "12/4/2019", "closed_date": "11/20/2020"}, {"name": "KHALIF, SAMSAM FAMILY CHILD CARE", "licensee": "KHALIF, SAMSAM", "address": "Unavailable", "city": "SAN DIEGO", "zip": "92111", "capacity": 14, "status": "CLOSED", "risk_score": 7, "lat": 32.804409861877446, "lng": -117.17129125278063, "license_date": "12/4/2019", "closed_date": "11/20/2020"}, {"name": "BEFORE AFTER SCHOOL ENRICHMENT", "licensee": "BEFORE AFTER SCHOOL ENRICHMENT", "address": "3701 KELTON DR.", "city": "OCEANSIDE", "zip": "92056", "capacity": 75, "status": "CLOSED", "risk_score": 7, "lat": 33.19814907535925, "lng": -117.3166646924686, "license_date": "10/6/2020", "closed_date": "8/22/2022"}, {"name": "APOLLO AFTER SCHOOL@GOLDEN OAK MONTESSORI-HAYWARD", "licensee": "APOLLO AFTER SCHOOL@GOLDEN OAK MONTESSORI-HAYWARD", "address": "2652 VERGIL COURT", "city": "CASTRO VALLEY", "zip": "94546", "capacity": 60, "status": "CLOSED", "risk_score": 7, "lat": 37.73115430986322, "lng": -122.08994654442546, "license_date": "1/22/2020", "closed_date": "6/30/2021"}, {"name": "ALLSTARS STEM ACADEMY OF EVERGREEN", "licensee": "ALLSTARS UNITED EDUCATION FOUNDATION", "address": "2650 ABORN ROAD", "city": "SAN JOSE", "zip": "95121", "capacity": 30, "status": "CLOSED", "risk_score": 7, "lat": 37.31158648079679, "lng": -121.81987043748525, "license_date": "9/12/2023", "closed_date": "1/1/2024"}, {"name": "REED, TAMARA FCCH", "licensee": "REED, TAMARA", "address": "Unavailable", "city": "VALLEJO", "zip": "94591", "capacity": 14, "status": "CLOSED", "risk_score": 7, "lat": 38.11904853230146, "lng": -122.19060263564516, "license_date": "9/30/2021", "closed_date": "6/24/2023"}, {"name": "JEAN BAPTISTE, FURAINNE FAMILY CHILD CARE", "licensee": "JEAN BAPTISTE, FURAINNE", "address": "Unavailable", "city": "SPRING VALEY", "zip": "91977", "capacity": 14, "status": "CLOSED", "risk_score": 7, "lat": 32.80591908097047, "lng": -116.95996328136353, "license_date": "12/7/2022", "closed_date": "1/18/2024"}, {"name": "JEAN BAPTISTE, FURAINNE FAMILY CHILD CARE", "licensee": "JEAN BAPTISTE, FURAINNE", "address": "Unavailable", "city": "SPRING VALEY", "zip": "91977", "capacity": 14, "status": "CLOSED", "risk_score": 7, "lat": 32.80729755031724, "lng": -116.94391523307465, "license_date": "12/7/2022", "closed_date": "1/18/2024"}, {"name": "YMCA OF GREATER WHITTIER-RANCHO PRESCHOOL", "licensee": "YMCA OF GREATER WHITTIER-RANCHO PRESCHOOL", "address": "14540 SAN CRISTOBA DRIVE", "city": "LA MIRADA", "zip": "90638", "capacity": 12, "status": "CLOSED", "risk_score": 7, "lat": 33.90648973122646, "lng": -118.02431377322252, "license_date": "4/27/2021", "closed_date": "1/31/2023"}, {"name": "YMCA OF GREATER WHITTIER-RANCHO PRESCHOOL", "licensee": "YMCA OF GREATER WHITTIER-RANCHO PRESCHOOL", "address": "14540 SAN CRISTOBA DRIVE", "city": "LA MIRADA", "zip": "90638", "capacity": 12, "status": "CLOSED", "risk_score": 7, "lat": 33.89322241139531, "lng": -118.03187225064657, "license_date": "4/27/2021", "closed_date": "1/31/2023"}, {"name": "KAUL, PRIYANKA", "licensee": "KAUL, PRIYANKA", "address": "Unavailable", "city": "DANVILLE", "zip": "94506", "capacity": 14, "status": "CLOSED", "risk_score": 7, "lat": 37.82341827780415, "lng": -122.02453019991785, "license_date": "2/18/2022", "closed_date": "1/29/2024"}, {"name": "JOHNSON, SAMANTHA", "licensee": "JOHNSON, SAMANTHA", "address": "Unavailable", "city": "PLEASANT HILL", "zip": "94523", "capacity": 14, "status": "CLOSED", "risk_score": 7, "lat": 37.943594276228396, "lng": -122.06794494720003, "license_date": "11/30/2020", "closed_date": "6/6/2022"}, {"name": "JOHNSON, SAMANTHA", "licensee": "JOHNSON, SAMANTHA", "address": "Unavailable", "city": "PLEASANT HILL", "zip": "94523", "capacity": 14, "status": "CLOSED", "risk_score": 7, "lat": 37.95133040177515, "lng": -122.07356190306022, "license_date": "11/30/2020", "closed_date": "6/6/2022"}, {"name": "JONES, AMBER & MURRILL, KATHY", "licensee": "JONES, AMBER & MURRILL, KATHY", "address": "Unavailable", "city": "SACRAMENTO", "zip": "95831", "capacity": 14, "status": "CLOSED", "risk_score": 7, "lat": 38.50073136623973, "lng": -121.52926232885267, "license_date": "2/17/2022", "closed_date": "1/3/2024"}, {"name": "JONES, AMBER & MURRILL, KATHY", "licensee": "JONES, AMBER & MURRILL, KATHY", "address": "Unavailable", "city": "SACRAMENTO", "zip": "95831", "capacity": 14, "status": "CLOSED", "risk_score": 7, "lat": 38.491556311480984, "lng": -121.53558519524644, "license_date": "2/17/2022", "closed_date": "1/3/2024"}, {"name": "CAMP ASPEN LEAF", "licensee": "CAALP INC.", "address": "1730 MONROE AVENUE, SUITE C", "city": "SAN DIEGO", "zip": "92116", "capacity": 20, "status": "CLOSED", "risk_score": 7, "lat": 32.77099131458338, "lng": -117.11730036123791, "license_date": "2/28/2022", "closed_date": "8/25/2023"}, {"name": "QUINTANA, ARGABI", "licensee": "QUINTANA, ARGABI", "address": "Unavailable", "city": "SANTA CLARA", "zip": "95050", "capacity": 14, "status": "CLOSED", "risk_score": 7, "lat": 37.36148624524291, "lng": -121.94917973043088, "license_date": "10/13/2020", "closed_date": "3/19/2022"}, {"name": "QUINTANA, ARGABI", "licensee": "QUINTANA, ARGABI", "address": "Unavailable", "city": "SANTA CLARA", "zip": "95050", "capacity": 14, "status": "CLOSED", "risk_score": 7, "lat": 37.349227080510005, "lng": -121.9551412070758, "license_date": "10/13/2020", "closed_date": "3/19/2022"}, {"name": "KID TIME, INC", "licensee": "KID TIME, INC.", "address": "320 CIVIC DR.", "city": "PLEASANT HILL", "zip": "94523", "capacity": 30, "status": "CLOSED", "risk_score": 7, "lat": 37.960316453676604, "lng": -122.07884435777531, "license_date": "8/21/2018", "closed_date": "7/3/2020"}, {"name": "KID TIME, INC", "licensee": "KID TIME, INC.", "address": "320 CIVIC DR.", "city": "PLEASANT HILL", "zip": "94523", "capacity": 30, "status": "CLOSED", "risk_score": 7, "lat": 37.94625580736123, "lng": -122.0684106698624, "license_date": "8/21/2018", "closed_date": "7/3/2020"}, {"name": "KID TIME, INC", "licensee": "KID TIME, INC.", "address": "320 CIVIC DR.", "city": "PLEASANT HILL", "zip": "94523", "capacity": 30, "status": "CLOSED", "risk_score": 7, "lat": 37.94365184135264, "lng": -122.08362066033285, "license_date": "8/21/2018", "closed_date": "7/3/2020"}, {"name": "KCE CHAMPIONS LLC @ GROWTH PUBLIC SCHOOLS", "licensee": "KCE CHAMPIONS LLC", "address": "9320 TECH CENTER DRIVE", "city": "SACRAMENTO", "zip": "95826", "capacity": 120, "status": "CLOSED", "risk_score": 7, "lat": 38.555586880397136, "lng": -121.37315000922679, "license_date": "8/15/2019", "closed_date": "7/17/2020"}, {"name": "RAGAVAN, VAISHNAVEE", "licensee": "RAGAVAN, VAISHNAVEE", "address": "Unavailable", "city": "FREMONT", "zip": "94539", "capacity": 14, "status": "CLOSED", "risk_score": 7, "lat": 37.51564433324066, "lng": -121.92523121328587, "license_date": "1/27/2021", "closed_date": "8/18/2022"}, {"name": "KCE CHAMPIONS LLC @ ARCHOE SCHOOL", "licensee": "KCE CHAMPION LLC", "address": "11755 IVIE ROAD", "city": "HERALD", "zip": "95638", "capacity": 200, "status": "CLOSED", "risk_score": 7, "lat": 38.38627569060406, "lng": -121.08422351671321, "license_date": "6/25/2020", "closed_date": "8/27/2021"}, {"name": "RAMEY FAMILY CHILD CARE", "licensee": "RAMEY, ROSELYN", "address": "Unavailable", "city": "LOS ANGELES", "zip": "90002", "capacity": 14, "status": "CLOSED", "risk_score": 7, "lat": 33.95808887838173, "lng": -118.23723817763427, "license_date": "9/19/2023", "closed_date": "4/9/2025"}, {"name": "HERATH, SAMADHI FAMILY CHILD CARE", "licensee": "HERATH, SAMADHI", "address": "Unavailable", "city": "SAN DIEGO", "zip": "92120", "capacity": 14, "status": "CLOSED", "risk_score": 7, "lat": 32.78633554433076, "lng": -117.06812874246603, "license_date": "6/21/2022", "closed_date": "10/24/2023"}, {"name": "RAMIREZ FAMILY CHILD CARE", "licensee": "RAMIREZ, LUCIA; LARA, SHELLY", "address": "Unavailable", "city": "SANTA MARIA", "zip": "93458", "capacity": 14, "status": "CLOSED", "risk_score": 7, "lat": 34.98658926219736, "lng": -120.41670468783425, "license_date": "10/11/2022", "closed_date": "9/25/2024"}, {"name": "H.O.M.E. L.L.C.", "licensee": "H.O.M.E. L.L.C.", "address": "1537 FULTON ST", "city": "FRESNO", "zip": "93721", "capacity": 60, "status": "CLOSED", "risk_score": 7, "lat": 36.74069851514218, "lng": -119.79357404995618, "license_date": "5/13/2022", "closed_date": "4/7/2023"}, {"name": "KING, AJA", "licensee": "KING, AJA", "address": "Unavailable", "city": "SACRAMENTO", "zip": "95841", "capacity": 14, "status": "CLOSED", "risk_score": 7, "lat": 38.670041986381165, "lng": -121.35140595532744, "license_date": "8/30/2021", "closed_date": "7/26/2022"}, {"name": "KIM, AE KYONG", "licensee": "KIM, AE KYONG", "address": "Unavailable", "city": "BUENA PARK", "zip": "90620", "capacity": 14, "status": "CLOSED", "risk_score": 7, "lat": 33.84997096945008, "lng": -118.01690165091945, "license_date": "2/4/2020", "closed_date": "11/9/2020"}, {"name": "GOOD SPORTS PLUS LTD (DBA) ARC - GOOD SHEPHERD", "licensee": "GOOD SPORTS PLUS LTD", "address": "148 S LINDEN DRIVE", "city": "BEVERLY HILLS", "zip": "90212", "capacity": 18, "status": "CLOSED", "risk_score": 7, "lat": 34.06303097133419, "lng": -118.39731753298345, "license_date": "1/31/2022", "closed_date": "6/18/2022"}, {"name": "GOOD SPORTS PLUS LTD (DBA) ARC - GOOD SHEPHERD", "licensee": "GOOD SPORTS PLUS LTD", "address": "148 S LINDEN DRIVE", "city": "BEVERLY HILLS", "zip": "90212", "capacity": 18, "status": "CLOSED", "risk_score": 7, "lat": 34.06579344321624, "lng": -118.40438337823723, "license_date": "1/31/2022", "closed_date": "6/18/2022"}, {"name": "EXPLORER'S CENTER, THE", "licensee": "NOVI'S CENTER LLC", "address": "10850 MONTONGO STREET", "city": "SAN DIEGO", "zip": "92126", "capacity": 48, "status": "CLOSED", "risk_score": 7, "lat": 32.91415281940009, "lng": -117.14082268156153, "license_date": "12/13/2022", "closed_date": "6/8/2023"}, {"name": "HERRERA, CYNTHIA", "licensee": "HERRERA, CYNTHIA", "address": "Unavailable", "city": "WATSONVILLE", "zip": "95076", "capacity": 14, "status": "CLOSED", "risk_score": 7, "lat": 36.97638241494856, "lng": -121.75176116443244, "license_date": "11/4/2020", "closed_date": "1/31/2021"}, {"name": "CHILDREN'S CHOICE ACADEMY - VISTA", "licensee": "CHILDREN'S CHOICE ACADEMY, INC", "address": "739 OLICE AVE", "city": "VISTA", "zip": "92083", "capacity": 14, "status": "CLOSED", "risk_score": 7, "lat": 33.21310447880805, "lng": -117.22986186862421, "license_date": "10/26/2023", "closed_date": "2/9/2024"}, {"name": "CHILDREN'S CHOICE ACADEMY - VISTA", "licensee": "CHILDREN'S CHOICE ACADEMY, INC", "address": "739 OLICE AVE", "city": "VISTA", "zip": "92083", "capacity": 14, "status": "CLOSED", "risk_score": 7, "lat": 33.196653198758604, "lng": -117.24077506340633, "license_date": "10/26/2023", "closed_date": "2/9/2024"}, {"name": "CHILDREN'S CHOICE ACADEMY - VISTA", "licensee": "CHILDREN'S CHOICE ACADEMY, INC", "address": "739 OLICE AVE", "city": "VISTA", "zip": "92083", "capacity": 14, "status": "CLOSED", "risk_score": 7, "lat": 33.21128210302237, "lng": -117.23840955626048, "license_date": "10/26/2023", "closed_date": "2/9/2024"}, {"name": "RIGHT AT SCHOOL AT GABRIELA MISTRAL", "licensee": "RIGHT AT SCHOOL, LLC", "address": "505 ESCULA AVENUE", "city": "MOUNTAIN VIEW", "zip": "94041", "capacity": 120, "status": "CLOSED", "risk_score": 7, "lat": 37.39727615939847, "lng": -122.07204188267457, "license_date": "8/14/2019", "closed_date": "4/1/2021"}, {"name": "RIGHT AT SCHOOL AT GRAHAM MIDDLE", "licensee": "RIGHT AT SCHOOL, LLC.", "address": "1175 CASTRO STREET", "city": "MOUNTAIN VIEW", "zip": "94040", "capacity": 120, "status": "CLOSED", "risk_score": 7, "lat": 37.38746128150499, "lng": -122.0863156890364, "license_date": "8/14/2019", "closed_date": "4/1/2021"}, {"name": "DA COSTA, ADRIANA", "licensee": "DA COSTA, ADRIANA", "address": "Unavailable", "city": "CONCORD", "zip": "94518", "capacity": 14, "status": "CLOSED", "risk_score": 7, "lat": 37.95252960857708, "lng": -122.0634782975716, "license_date": "11/28/2022", "closed_date": "12/11/2023"}, {"name": "DA COSTA, ADRIANA", "licensee": "DA COSTA, ADRIANA", "address": "Unavailable", "city": "CONCORD", "zip": "94518", "capacity": 14, "status": "CLOSED", "risk_score": 7, "lat": 37.94703692936904, "lng": -122.06800768019285, "license_date": "11/28/2022", "closed_date": "12/11/2023"}, {"name": "BERMUDEZ, ERIKA FAMILY CHILD CARE", "licensee": "BERMUDEZ, ERIKA", "address": "Unavailable", "city": "CHULA VISTA", "zip": "91913", "capacity": 14, "status": "CLOSED", "risk_score": 7, "lat": 32.64097927206263, "lng": -116.96565731527838, "license_date": "6/30/2020", "closed_date": "12/23/2020"}, {"name": "BERMUDEZ, ERIKA FAMILY CHILD CARE", "licensee": "BERMUDEZ, ERIKA", "address": "Unavailable", "city": "CHULA VISTA", "zip": "91913", "capacity": 14, "status": "CLOSED", "risk_score": 7, "lat": 32.6358595937823, "lng": -116.97636096181421, "license_date": "6/30/2020", "closed_date": "12/23/2020"}, {"name": "MADDALA, SAI LAKSHMI", "licensee": "MADDALA, SAI LAKSHMI", "address": "Unavailable", "city": "ANTIOCH", "zip": "94531", "capacity": 14, "status": "CLOSED", "risk_score": 7, "lat": 37.95441264907435, "lng": -121.80062372622022, "license_date": "6/2/2022", "closed_date": "4/11/2024"}, {"name": "MADDALA, SAI LAKSHMI", "licensee": "MADDALA, SAI LAKSHMI", "address": "Unavailable", "city": "ANTIOCH", "zip": "94531", "capacity": 14, "status": "CLOSED", "risk_score": 7, "lat": 37.961069549100095, "lng": -121.78626011123237, "license_date": "6/2/2022", "closed_date": "4/11/2024"}, {"name": "BELLOFATTO, ELIZABETH FAMILY CHILD CARE", "licensee": "BELLOFATTO, ELIZABETH", "address": "Unavailable", "city": "SAN DIEGO", "zip": "92117", "capacity": 14, "status": "CLOSED", "risk_score": 7, "lat": 32.82770421334451, "lng": -117.19056725028173, "license_date": "4/7/2021", "closed_date": "2/10/2022"}, {"name": "BELLOFATTO, ELIZABETH FAMILY CHILD CARE", "licensee": "BELLOFATTO, ELIZABETH", "address": "Unavailable", "city": "SAN DIEGO", "zip": "92117", "capacity": 14, "status": "CLOSED", "risk_score": 7, "lat": 32.81644183033005, "lng": -117.20756690708731, "license_date": "4/7/2021", "closed_date": "2/10/2022"}, {"name": "CORTEZ FAMILY CHILD CARE", "licensee": "CORTEZ, BRIANNA", "address": "Unavailable", "city": "VISTA", "zip": "92081", "capacity": 14, "status": "CLOSED", "risk_score": 7, "lat": 33.16961313807082, "lng": -117.19514621026386, "license_date": "5/10/2022", "closed_date": "2/12/2024"}, {"name": "LO, HUI FEN", "licensee": "LO, HUI FEN", "address": "Unavailable", "city": "SUNNYVALE", "zip": "94087", "capacity": 14, "status": "CLOSED", "risk_score": 7, "lat": 37.35740586916882, "lng": -122.039176572964, "license_date": "10/17/2022", "closed_date": "8/31/2024"}, {"name": "BAUTISTA, GLORIA", "licensee": "BAUTISTA, GLORIA", "address": "Unavailable", "city": "CUPERTINO", "zip": "95014", "capacity": 14, "status": "CLOSED", "risk_score": 7, "lat": 37.31470166065662, "lng": -122.04247308561118, "license_date": "5/6/2020", "closed_date": "2/17/2021"}, {"name": "BARRERA FAMILY CHILD CARE", "licensee": "NATALJA BARRERA", "address": "Unavailable", "city": "LOS ANGELES", "zip": "90066", "capacity": 12, "status": "CLOSED", "risk_score": 7, "lat": 34.004320743525994, "lng": -118.43484495326557, "license_date": "1/10/2020", "closed_date": "9/1/2020"}, {"name": "BARRAGAN, JOHANNA FAMILY CHILD CARE", "licensee": "BARRAGAN, JOHANNA", "address": "Unavailable", "city": "SAN DIEGO", "zip": "92154", "capacity": 14, "status": "CLOSED", "risk_score": 7, "lat": 32.57802212214115, "lng": -117.04461229557089, "license_date": "12/8/2022", "closed_date": "6/14/2024"}, {"name": "BARAJAS GONZALEZ-SILVA FCC", "licensee": "BARAJAS,JESSICA&GONZALEZ-SILVA MARIO", "address": "Unavailable", "city": "SANTA MARIA", "zip": "93455", "capacity": 14, "status": "CLOSED", "risk_score": 7, "lat": 34.89040935327913, "lng": -120.43355805412988, "license_date": "12/28/2022", "closed_date": "5/22/2024"}, {"name": "BAKOUR, NAELA", "licensee": "BAKOUR, NAELA", "address": "Unavailable", "city": "SAN CARLOS", "zip": "94070", "capacity": 14, "status": "CLOSED", "risk_score": 7, "lat": 37.53254833719726, "lng": -122.2564490291, "license_date": "9/21/2022", "closed_date": "8/17/2023"}, {"name": "BAEZA, AMELIA FCCH", "licensee": "BAEZA, AMELIA", "address": "Unavailable", "city": "NAPA", "zip": "94558", "capacity": 14, "status": "CLOSED", "risk_score": 7, "lat": 38.310603799377446, "lng": -122.28954318392967, "license_date": "5/19/2020", "closed_date": "7/18/2021"}, {"name": "BAEZA, AMELIA FCCH", "licensee": "BAEZA, AMELIA", "address": "Unavailable", "city": "NAPA", "zip": "94558", "capacity": 14, "status": "CLOSED", "risk_score": 7, "lat": 38.31135532924434, "lng": -122.28407669763317, "license_date": "5/19/2020", "closed_date": "7/18/2021"}, {"name": "AYALA, MARICELA FAMILY CHILD CARE", "licensee": "AYALA, MARICELA", "address": "Unavailable", "city": "BAKERSFIELD", "zip": "93313", "capacity": 14, "status": "CLOSED", "risk_score": 7, "lat": 35.27260338019187, "lng": -119.01937994145335, "license_date": "9/21/2020", "closed_date": "11/23/2021"}, {"name": "AYALA, MARICELA FAMILY CHILD CARE", "licensee": "AYALA, MARICELA", "address": "Unavailable", "city": "BAKERSFIELD", "zip": "93313", "capacity": 14, "status": "CLOSED", "risk_score": 7, "lat": 35.26015494862595, "lng": -119.0185179467594, "license_date": "9/21/2020", "closed_date": "11/23/2021"}, {"name": "AYALA, MARICELA FAMILY CHILD CARE", "licensee": "AYALA, MARICELA", "address": "Unavailable", "city": "BAKERSFIELD", "zip": "93313", "capacity": 14, "status": "CLOSED", "risk_score": 7, "lat": 35.25720090183221, "lng": -119.01653028532198, "license_date": "9/21/2020", "closed_date": "11/23/2021"}, {"name": "MEJIA FAMILY CHILD CARE", "licensee": "JESSICA MEJIA", "address": "Unavailable", "city": "SAN PEDRO", "zip": "90731", "capacity": 14, "status": "CLOSED", "risk_score": 7, "lat": 33.73943398455248, "lng": -118.29281533423087, "license_date": "1/31/2020", "closed_date": "1/12/2021"}, {"name": "ARA, ROSHAN", "licensee": "ARA, ROSHAN", "address": "Unavailable", "city": "SUNNYVALE", "zip": "94086", "capacity": 14, "status": "CLOSED", "risk_score": 7, "lat": 37.37585136119096, "lng": -122.01759682792893, "license_date": "10/29/2020", "closed_date": "6/7/2021"}, {"name": "ARA, ROSHAN", "licensee": "ARA, ROSHAN", "address": "Unavailable", "city": "SUNNYVALE", "zip": "94086", "capacity": 14, "status": "CLOSED", "risk_score": 7, "lat": 37.385919433952054, "lng": -122.02522674978471, "license_date": "10/29/2020", "closed_date": "6/7/2021"}, {"name": "RIVERA SANCHEZ, SARELY", "licensee": "RIVERA SANCHEZ, SARELY", "address": "Unavailable", "city": "CUPERTINO", "zip": "95014", "capacity": 14, "status": "CLOSED", "risk_score": 7, "lat": 37.31927378258649, "lng": -122.04207532311327, "license_date": "12/23/2022", "closed_date": "9/27/2023"}, {"name": "RIVERA SANCHEZ, SARELY", "licensee": "RIVERA SANCHEZ, SARELY", "address": "Unavailable", "city": "CUPERTINO", "zip": "95014", "capacity": 14, "status": "CLOSED", "risk_score": 7, "lat": 37.325889922635035, "lng": -122.04304614337362, "license_date": "12/23/2022", "closed_date": "9/27/2023"}, {"name": "BISHOP, RIEM", "licensee": "BISHOP, RIEM", "address": "Unavailable", "city": "CUPERTINO", "zip": "95014", "capacity": 14, "status": "CLOSED", "risk_score": 7, "lat": 37.3083640021045, "lng": -122.04132248069483, "license_date": "4/21/2021", "closed_date": "2/27/2023"}, {"name": "CASTRO FAMILY CHILD CARE", "licensee": "CASTRO, FATIMA", "address": "Unavailable", "city": "LONG BEACH", "zip": "90805", "capacity": 14, "status": "CLOSED", "risk_score": 7, "lat": 33.86733494254554, "lng": -118.19214314298232, "license_date": "5/1/2023", "closed_date": "3/12/2024"}, {"name": "CASTRO FAMILY CHILD CARE", "licensee": "CASTRO, FATIMA", "address": "Unavailable", "city": "LONG BEACH", "zip": "90805", "capacity": 14, "status": "CLOSED", "risk_score": 7, "lat": 33.85611229015008, "lng": -118.18945048013885, "license_date": "5/1/2023", "closed_date": "3/12/2024"}, {"name": "MARTINEZ LOPEZ, ANIBAL", "licensee": "MARTINEZ LOPEZ, ANIBAL", "address": "Unavailable", "city": "MOUNTAIN VIEW", "zip": "94043", "capacity": 14, "status": "CLOSED", "risk_score": 7, "lat": 37.39701254762462, "lng": -122.07819925769206, "license_date": "4/2/2021", "closed_date": "2/15/2022"}, {"name": "CASTILLO FCC AKA DAY CARE AT GRANDMA'S", "licensee": "CASTILLO, IRMA", "address": "Unavailable", "city": "SANTA MARIA", "zip": "93458", "capacity": 14, "status": "CLOSED", "risk_score": 7, "lat": 34.96907013916496, "lng": -120.42409015806874, "license_date": "7/14/2021", "closed_date": "6/2/2023"}, {"name": "CASTILLO FCC AKA DAY CARE AT GRANDMA'S", "licensee": "CASTILLO, IRMA", "address": "Unavailable", "city": "SANTA MARIA", "zip": "93458", "capacity": 14, "status": "CLOSED", "risk_score": 7, "lat": 34.98444931172257, "lng": -120.41475095556385, "license_date": "7/14/2021", "closed_date": "6/2/2023"}, {"name": "CERVANTES, MAYRA FAMILY CHILD CARE", "licensee": "MAYRA CERVANTES", "address": "Unavailable", "city": "HANFORD", "zip": "93230", "capacity": 14, "status": "CLOSED", "risk_score": 7, "lat": 36.320182737479996, "lng": -119.64986632866312, "license_date": "3/5/2020", "closed_date": "10/28/2021"}, {"name": "CASTILLO FAMILY CHILD CARE", "licensee": "CASTILLO, MARIA", "address": "Unavailable", "city": "SANTA MARIA", "zip": "93455", "capacity": 14, "status": "CLOSED", "risk_score": 7, "lat": 34.8982357098721, "lng": -120.44638564007839, "license_date": "5/31/2024", "closed_date": "3/12/2025"}, {"name": "CASTILLO FAMILY CHILD CARE", "licensee": "CASTILLO, MARIA", "address": "Unavailable", "city": "SANTA MARIA", "zip": "93455", "capacity": 14, "status": "CLOSED", "risk_score": 7, "lat": 34.89211015607713, "lng": -120.43637020494025, "license_date": "5/31/2024", "closed_date": "3/12/2025"}, {"name": "CASTILLO FAMILY CHILD CARE", "licensee": "CASTILLO, MARIA", "address": "Unavailable", "city": "SANTA MARIA", "zip": "93455", "capacity": 14, "status": "CLOSED", "risk_score": 7, "lat": 34.88184813005215, "lng": -120.43919761457549, "license_date": "5/31/2024", "closed_date": "3/12/2025"}, {"name": "CASTILLO FAMILY CHILD CARE", "licensee": "CASTILLO, MARIA", "address": "Unavailable", "city": "SANTA MARIA", "zip": "93455", "capacity": 14, "status": "CLOSED", "risk_score": 7, "lat": 34.88757338745065, "lng": -120.44823761510624, "license_date": "5/31/2024", "closed_date": "3/12/2025"}, {"name": "CASTILLO FAMILY CHILD CARE", "licensee": "CASTILLO, MARIA", "address": "Unavailable", "city": "SANTA MARIA", "zip": "93455", "capacity": 14, "status": "CLOSED", "risk_score": 7, "lat": 34.89746831730295, "lng": -120.43706639903328, "license_date": "5/31/2024", "closed_date": "3/12/2025"}, {"name": "MARTINEZ, FRANCISCO", "licensee": "MARTINEZ, FRANCISCO", "address": "Unavailable", "city": "MENLO PARK", "zip": "94025", "capacity": 14, "status": "CLOSED", "risk_score": 7, "lat": 37.44843239301791, "lng": -122.18560990339695, "license_date": "2/23/2022", "closed_date": "2/21/2023"}, {"name": "MCCOY, MICHELLE FAMILY CHILD CARE", "licensee": "MCCOY, MICHELLE", "address": "Unavailable", "city": "FRESNO", "zip": "93727", "capacity": 14, "status": "CLOSED", "risk_score": 7, "lat": 36.74990166243937, "lng": -119.68736638936363, "license_date": "4/25/2022", "closed_date": "11/17/2023"}, {"name": "MCCOY, MICHELLE FAMILY CHILD CARE", "licensee": "MCCOY, MICHELLE", "address": "Unavailable", "city": "FRESNO", "zip": "93727", "capacity": 14, "status": "CLOSED", "risk_score": 7, "lat": 36.758935789246344, "lng": -119.6885315617327, "license_date": "4/25/2022", "closed_date": "11/17/2023"}, {"name": "CAMARENA FAMILY CHILD CARE", "licensee": "MIRNA CAMARENA", "address": "Unavailable", "city": "LOS ANGELES", "zip": "90065", "capacity": 14, "status": "CLOSED", "risk_score": 7, "lat": 34.1019999697587, "lng": -118.23004737470518, "license_date": "12/23/2021", "closed_date": "1/3/2023"}, {"name": "BUENROSTRO, JANET FAMILY CHILD CARE", "licensee": "BUENROSTRO, JANET", "address": "Unavailable", "city": "SAN DIEGO", "zip": "92111", "capacity": 14, "status": "CLOSED", "risk_score": 7, "lat": 32.80900215873097, "lng": -117.16841013523083, "license_date": "10/12/2021", "closed_date": "8/19/2023"}, {"name": "CHEN, AIHUA", "licensee": "AIHUA CHEN", "address": "Unavailable", "city": "SANTA CLARA", "zip": "95051", "capacity": 14, "status": "CLOSED", "risk_score": 7, "lat": 37.354253803042475, "lng": -121.97818657946952, "license_date": "1/20/2021", "closed_date": "11/21/2022"}, {"name": "MAIER-DUNN, PAMELA FAMILY CHILD CARE", "licensee": "MAIER-DUNN, PAMELA", "address": "Unavailable", "city": "SAN DIEGO", "zip": "92109", "capacity": 14, "status": "CLOSED", "risk_score": 7, "lat": 32.78205872434503, "lng": -117.23715853179509, "license_date": "2/5/2020", "closed_date": "7/19/2021"}, {"name": "MCINTOSH, MYRIAN FCCH", "licensee": "MCINTOSH, MYRIAN", "address": "Unavailable", "city": "AMERICAN CANYON", "zip": "94503", "capacity": 14, "status": "CLOSED", "risk_score": 7, "lat": 38.01769627708486, "lng": -122.2614845619897, "license_date": "9/14/2020", "closed_date": "12/9/2020"}, {"name": "ANDRAL, EDNER FAMILY CHILD CARE", "licensee": "ANDRAL, EDNER", "address": "Unavailable", "city": "SAN DIEGO", "zip": "92105", "capacity": 14, "status": "CLOSED", "risk_score": 7, "lat": 32.74944404947008, "lng": -117.09610958814983, "license_date": "12/7/2023", "closed_date": "5/12/2025"}, {"name": "ANDRAL, EDNER FAMILY CHILD CARE", "licensee": "ANDRAL, EDNER", "address": "Unavailable", "city": "SAN DIEGO", "zip": "92105", "capacity": 14, "status": "CLOSED", "risk_score": 7, "lat": 32.74984245073716, "lng": -117.09961385665243, "license_date": "12/7/2023", "closed_date": "5/12/2025"}, {"name": "ANDRAL, EDNER FAMILY CHILD CARE", "licensee": "ANDRAL, EDNER", "address": "Unavailable", "city": "SAN DIEGO", "zip": "92105", "capacity": 14, "status": "CLOSED", "risk_score": 7, "lat": 32.7385785559561, "lng": -117.09271610500797, "license_date": "12/7/2023", "closed_date": "5/12/2025"}, {"name": "NIQOLA, ATOOR FAMILY CHILD CARE", "licensee": "NIQOLA, ATOOR FAMILY CHILD CARE", "address": "Unavailable", "city": "EL CAJON", "zip": "92021", "capacity": 14, "status": "CLOSED", "risk_score": 7, "lat": 32.83863787494576, "lng": -116.94382932411516, "license_date": "9/22/2022", "closed_date": "7/30/2024"}, {"name": "DUQUE, CLAUDIA FAMILY CHILD CARE", "licensee": "DUQUE, CLAUDIA", "address": "Unavailable", "city": "SAN DIEGO", "zip": "92123", "capacity": 14, "status": "CLOSED", "risk_score": 7, "lat": 32.800576577479575, "lng": -117.1341512691419, "license_date": "9/9/2022", "closed_date": "5/17/2024"}, {"name": "ELDEEB, SAHAR", "licensee": "ELDEEB, SAHAR", "address": "Unavailable", "city": "FREMONT", "zip": "94536", "capacity": 14, "status": "CLOSED", "risk_score": 7, "lat": 37.57670511133181, "lng": -122.01720761046788, "license_date": "2/14/2020", "closed_date": "3/3/2021"}, {"name": "ELDEEB, SAHAR", "licensee": "ELDEEB, SAHAR", "address": "Unavailable", "city": "FREMONT", "zip": "94536", "capacity": 14, "status": "CLOSED", "risk_score": 7, "lat": 37.56449830592393, "lng": -122.00610271530319, "license_date": "2/14/2020", "closed_date": "3/3/2021"}, {"name": "LITTLE II, ROBERT C. & CAREY, PAIGE M.", "licensee": "LITTLE II, ROBERT C. & CAREY, PAIGE M.", "address": "Unavailable", "city": "REDWOOD CITY", "zip": "94062", "capacity": 14, "status": "CLOSED", "risk_score": 7, "lat": 37.452956192180125, "lng": -122.29037560171183, "license_date": "2/17/2022", "closed_date": "2/14/2023"}, {"name": "ESMAIL, HALLA", "licensee": "ESMAIL, HALLA", "address": "Unavailable", "city": "ELK GROVE", "zip": "95624", "capacity": 12, "status": "CLOSED", "risk_score": 7, "lat": 38.421918727976376, "lng": -121.3150295157784, "license_date": "10/19/2023", "closed_date": "9/19/2024"}, {"name": "NOORI, SHAFIQA FAMILY CHILD CARE", "licensee": "NOORI, SHAFIQA", "address": "Unavailable", "city": "EL CAJON", "zip": "92020", "capacity": 14, "status": "CLOSED", "risk_score": 7, "lat": 32.786669789828615, "lng": -116.95289044973018, "license_date": "9/1/2023", "closed_date": "7/11/2024"}, {"name": "NOORI, SHAFIQA FAMILY CHILD CARE", "licensee": "NOORI, SHAFIQA", "address": "Unavailable", "city": "EL CAJON", "zip": "92020", "capacity": 14, "status": "CLOSED", "risk_score": 7, "lat": 32.801281920546316, "lng": -116.96940794966984, "license_date": "9/1/2023", "closed_date": "7/11/2024"}, {"name": "NOORI, SHAFIQA FAMILY CHILD CARE", "licensee": "NOORI, SHAFIQA", "address": "Unavailable", "city": "EL CAJON", "zip": "92020", "capacity": 14, "status": "CLOSED", "risk_score": 7, "lat": 32.800826064342914, "lng": -116.95816183719367, "license_date": "9/1/2023", "closed_date": "7/11/2024"}, {"name": "NOORI, SHAFIQA FAMILY CHILD CARE", "licensee": "NOORI, SHAFIQA", "address": "Unavailable", "city": "EL CAJON", "zip": "92020", "capacity": 14, "status": "CLOSED", "risk_score": 7, "lat": 32.79721497621808, "lng": -116.95792237047216, "license_date": "9/1/2023", "closed_date": "7/11/2024"}, {"name": "ESQUIVEL, MARIA", "licensee": "ESQUIVEL, MARIA", "address": "Unavailable", "city": "GILROY", "zip": "95020", "capacity": 14, "status": "CLOSED", "risk_score": 7, "lat": 37.001097517655204, "lng": -121.57193834944965, "license_date": "3/23/2022", "closed_date": "2/20/2024"}, {"name": "ESQUIVEL, MARIA", "licensee": "ESQUIVEL, MARIA", "address": "Unavailable", "city": "GILROY", "zip": "95020", "capacity": 14, "status": "CLOSED", "risk_score": 7, "lat": 36.99822258526609, "lng": -121.56942521996689, "license_date": "3/23/2022", "closed_date": "2/20/2024"}, {"name": "ESQUIVEL, MARIA", "licensee": "ESQUIVEL, MARIA", "address": "Unavailable", "city": "GILROY", "zip": "95020", "capacity": 14, "status": "CLOSED", "risk_score": 7, "lat": 37.014167718448235, "lng": -121.57267499973857, "license_date": "3/23/2022", "closed_date": "2/20/2024"}, {"name": "SHELDON ACRES CHILD DEVELOPMENT CENTER", "licensee": "STEFANIE THOMPSON", "address": "10393 PLEASANT GROVE SCHOOL RD", "city": "ELK GROVE", "zip": "95624", "capacity": 24, "status": "CLOSED", "risk_score": 7, "lat": 38.43649391353689, "lng": -121.31366147785856, "license_date": "5/18/2022", "closed_date": "6/15/2023"}, {"name": "SHELDON ACRES CHILD DEVELOPMENT CENTER", "licensee": "STEFANIE THOMPSON", "address": "10393 PLEASANT GROVE SCHOOL RD", "city": "ELK GROVE", "zip": "95624", "capacity": 24, "status": "CLOSED", "risk_score": 7, "lat": 38.43393368969179, "lng": -121.31917995512653, "license_date": "5/18/2022", "closed_date": "6/15/2023"}, {"name": "RIGHT AT SCHOOL AT THEUERKAUF", "licensee": "RIGHT AT SCHOOL, LLC", "address": "1625 SAN LUIS AVENUE", "city": "MOUNTAIN VIEW", "zip": "94043", "capacity": 105, "status": "CLOSED", "risk_score": 7, "lat": 37.408459955049125, "lng": -122.07951287446384, "license_date": "8/14/2019", "closed_date": "4/1/2021"}, {"name": "LIEN, SHUANG", "licensee": "LIEN, SHUANG", "address": "Unavailable", "city": "DUBLIN", "zip": "94568", "capacity": 14, "status": "CLOSED", "risk_score": 7, "lat": 37.7128458851587, "lng": -121.93097489243395, "license_date": "12/13/2023", "closed_date": "10/21/2024"}, {"name": "LIEN, SHUANG", "licensee": "LIEN, SHUANG", "address": "Unavailable", "city": "DUBLIN", "zip": "94568", "capacity": 14, "status": "CLOSED", "risk_score": 7, "lat": 37.706537536463884, "lng": -121.92553586076465, "license_date": "12/13/2023", "closed_date": "10/21/2024"}, {"name": "RIGHT AT SCHOOL AT STEVENSON", "licensee": "RIGHT AT SCHOOL, LLC.", "address": "750 SAN PIERRE WAY", "city": "MOUNTAIN VIEW", "zip": "94043", "capacity": 120, "status": "CLOSED", "risk_score": 7, "lat": 37.41018178388007, "lng": -122.07680615813004, "license_date": "8/14/2019", "closed_date": "4/1/2021"}, {"name": "FAN, SITING", "licensee": "FAN, SITING", "address": "Unavailable", "city": "LOS ALTOS", "zip": "94024", "capacity": 14, "status": "CLOSED", "risk_score": 7, "lat": 37.36744660003442, "lng": -122.07916380017025, "license_date": "7/7/2021", "closed_date": "4/30/2023"}, {"name": "RIGHT AT SCHOOL AT MONTA LOMA", "licensee": "RIGHT AT SCHOOL, LLC", "address": "460 THOMPSON AVENUE", "city": "MOUNTAIN VIEW", "zip": "94043", "capacity": 115, "status": "CLOSED", "risk_score": 7, "lat": 37.407584206245524, "lng": -122.07118209367613, "license_date": "8/14/2019", "closed_date": "4/1/2021"}, {"name": "RIGHT AT SCHOOL AT JOSE VARGAS", "licensee": "RIGHT AT SCHOOL, LLC.", "address": "220 N. WHISMAN ROAD", "city": "MOUNTAIN VIEW", "zip": "94043", "capacity": 120, "status": "CLOSED", "risk_score": 7, "lat": 37.40046258733661, "lng": -122.07478756982016, "license_date": "9/9/2019", "closed_date": "4/1/2021"}, {"name": "FAUNTLEROY FAMILY CHILD CARE", "licensee": "DIANN C. FAUNTLEROY", "address": "Unavailable", "city": "LOS ANGELES", "zip": "90059", "capacity": 14, "status": "CLOSED", "risk_score": 7, "lat": 33.935257154749955, "lng": -118.2448754145277, "license_date": "9/28/2020", "closed_date": "12/23/2021"}, {"name": "LIEN, SHUANG", "licensee": "SHUANG LIEN", "address": "Unavailable", "city": "DUBLIN", "zip": "94568", "capacity": 14, "status": "CLOSED", "risk_score": 7, "lat": 37.69742423744682, "lng": -121.92528797452047, "license_date": "10/21/2024", "closed_date": "5/5/2025"}, {"name": "WINDSOR HILL STAR", "licensee": "STAR INC. & KATYA BOZZI", "address": "4046 W. SLAUSON AVENUE", "city": "LOS ANGELES", "zip": "90043", "capacity": 40, "status": "CLOSED", "risk_score": 7, "lat": 33.99346811402201, "lng": -118.33697791616339, "license_date": "11/19/2020", "closed_date": "3/1/2022"}, {"name": "YMCA OF SUPERIOR CALIFORNIA - B'NAI ISRAEL", "licensee": "YMCA OF SUPERIOR CALIFORNIA", "address": "3600 RIVERSIDE BLVD", "city": "SACRAMENTO", "zip": "95818", "capacity": 60, "status": "CLOSED", "risk_score": 7, "lat": 38.54547887957575, "lng": -121.4933747168712, "license_date": "4/1/2022", "closed_date": "12/23/2022"}, {"name": "ALSTON, CHALISE", "licensee": "ALSTON, CHALISE", "address": "Unavailable", "city": "ORANGEVALE", "zip": "95662", "capacity": 14, "status": "CLOSED", "risk_score": 7, "lat": 38.679629578950866, "lng": -121.21707900574565, "license_date": "8/25/2022", "closed_date": "6/12/2024"},